{"Q239":{"countryCode":"BE","countyCode":"BE-BRU","code":"Q239","name":"Brussel","latitude":"50.85045000","longitude":"4.34878000","wikiDataId":"Q239","type":"administrative","placeRank":14},"Q21770022":{"countryCode":"BE","countyCode":"BE-VLG","code":"Q21770022","name":"Aalst","latitude":"50.93604000","longitude":"4.03550000","wikiDataId":"Q21770022","type":"administrative","placeRank":14},"Q21770025":{"countryCode":"BE","countyCode":"BE-VLG","code":"Q21770025","name":"Aalter","latitude":"51.09017000","longitude":"3.44693000","wikiDataId":"Q21770025","type":"administrative","placeRank":14},"Q12358108":{"countryCode":"BE","countyCode":"BE-VLG","code":"Q12358108","name":"Aarschot","latitude":"50.98715000","longitude":"4.83695000","wikiDataId":"Q12358108","type":"administrative","placeRank":14},"Q21770026":{"countryCode":"BE","countyCode":"BE-VLG","code":"Q21770026","name":"Aartselaar","latitude":"51.13412000","longitude":"4.38678000","wikiDataId":"Q21770026","type":"administrative","placeRank":14},"Q21770050":{"countryCode":"BE","countyCode":"BE-VLG","code":"Q21770050","name":"Alken","latitude":"50.87553000","longitude":"5.30558000","wikiDataId":"Q21770050","type":"administrative","placeRank":14},"Q21770057":{"countryCode":"BE","countyCode":"BE-VLG","code":"Q21770057","name":"Alveringem","latitude":"51.01238000","longitude":"2.71117000","wikiDataId":"Q21770057","type":"administrative","placeRank":14},"Q31467408":{"countryCode":"BE","countyCode":"BE-VLG","code":"Q31467408","name":"Antwerpen","latitude":"51.21989000","longitude":"4.40346000","wikiDataId":"Q31467408","type":"administrative","placeRank":14},"Q21770084":{"countryCode":"BE","countyCode":"BE-VLG","code":"Q21770084","name":"Anzegem","latitude":"50.83700000","longitude":"3.47786000","wikiDataId":"Q21770084","type":"administrative","placeRank":14},"Q21770087":{"countryCode":"BE","countyCode":"BE-VLG","code":"Q21770087","name":"Ardooie","latitude":"50.97570000","longitude":"3.19736000","wikiDataId":"Q21770087","type":"administrative","placeRank":14},"Q21770093":{"countryCode":"BE","countyCode":"BE-VLG","code":"Q21770093","name":"Arendonk","latitude":"51.32267000","longitude":"5.08289000","wikiDataId":"Q21770093","type":"administrative","placeRank":14},"Q21770097":{"countryCode":"BE","countyCode":"BE-VLG","code":"Q21770097","name":"As","latitude":"51.00755000","longitude":"5.58453000","wikiDataId":"Q21770097","type":"administrative","placeRank":14},"Q31469777":{"countryCode":"BE","countyCode":"BE-VLG","code":"Q31469777","name":"Asse","latitude":"50.91011000","longitude":"4.19836000","wikiDataId":"Q31469777","type":"administrative","placeRank":14},"Q21770102":{"countryCode":"BE","countyCode":"BE-VLG","code":"Q21770102","name":"Assenede","latitude":"51.22598000","longitude":"3.75085000","wikiDataId":"Q21770102","type":"administrative","placeRank":14},"Q21770132":{"countryCode":"BE","countyCode":"BE-VLG","code":"Q21770132","name":"Avelgem","latitude":"50.77618000","longitude":"3.44502000","wikiDataId":"Q21770132","type":"administrative","placeRank":14},"Q21770147":{"countryCode":"BE","countyCode":"BE-VLG","code":"Q21770147","name":"Baarle-Hertog","latitude":"51.40504000","longitude":"4.89226000","wikiDataId":"Q21770147","type":"administrative","placeRank":14},"Q2543386":{"countryCode":"BE","countyCode":"BE-VLG","code":"Q2543386","name":"Balen","latitude":"51.16837000","longitude":"5.17027000","wikiDataId":"Q2543386","type":"administrative","placeRank":14},"Q21770227":{"countryCode":"BE","countyCode":"BE-VLG","code":"Q21770227","name":"Beernem","latitude":"51.13981000","longitude":"3.33896000","wikiDataId":"Q21770227","type":"administrative","placeRank":14},"Q21770228":{"countryCode":"BE","countyCode":"BE-VLG","code":"Q21770228","name":"Beerse","latitude":"51.31927000","longitude":"4.85304000","wikiDataId":"Q21770228","type":"administrative","placeRank":14},"Q31495214":{"countryCode":"BE","countyCode":"BE-VLG","code":"Q31495214","name":"Beersel","latitude":"50.76589000","longitude":"4.30020000","wikiDataId":"Q31495214","type":"administrative","placeRank":14},"Q21770234":{"countryCode":"BE","countyCode":"BE-VLG","code":"Q21770234","name":"Begijnendijk","latitude":"51.01942000","longitude":"4.78377000","wikiDataId":"Q21770234","type":"administrative","placeRank":14},"Q21770237":{"countryCode":"BE","countyCode":"BE-VLG","code":"Q21770237","name":"Bekkevoort","latitude":"50.94074000","longitude":"4.96900000","wikiDataId":"Q21770237","type":"administrative","placeRank":14},"Q31496998":{"countryCode":"BE","countyCode":"BE-VLG","code":"Q31496998","name":"Beringen","latitude":"51.04954000","longitude":"5.22606000","wikiDataId":"Q31496998","type":"administrative","placeRank":14},"Q21770271":{"countryCode":"BE","countyCode":"BE-VLG","code":"Q21770271","name":"Berlaar","latitude":"51.11760000","longitude":"4.65835000","wikiDataId":"Q21770271","type":"administrative","placeRank":14},"Q21770273":{"countryCode":"BE","countyCode":"BE-VLG","code":"Q21770273","name":"Berlare","latitude":"51.03333000","longitude":"4.00000000","wikiDataId":"Q21770273","type":"administrative","placeRank":14},"Q21770285":{"countryCode":"BE","countyCode":"BE-VLG","code":"Q21770285","name":"Bertem","latitude":"50.86403000","longitude":"4.62918000","wikiDataId":"Q21770285","type":"administrative","placeRank":14},"Q21770305":{"countryCode":"BE","countyCode":"BE-VLG","code":"Q21770305","name":"Bever","latitude":"50.91667000","longitude":"4.31667000","wikiDataId":"Q21770305","type":"administrative","placeRank":16},"Q31498075":{"countryCode":"BE","countyCode":"BE-VLG","code":"Q31498075","name":"Beveren","latitude":"51.21187000","longitude":"4.25633000","wikiDataId":"Q31498075","type":"administrative","placeRank":16},"Q21770318":{"countryCode":"BE","countyCode":"BE-VLG","code":"Q21770318","name":"Bierbeek","latitude":"50.82876000","longitude":"4.75949000","wikiDataId":"Q21770318","type":"administrative","placeRank":14},"Q31501520":{"countryCode":"BE","countyCode":"BE-VLG","code":"Q31501520","name":"Bilzen","latitude":"50.87325000","longitude":"5.51840000","wikiDataId":"Q31501520","type":"administrative","placeRank":16},"Q328104":{"countryCode":"BE","countyCode":"BE-VLG","code":"Q328104","name":"Blankenberge","latitude":"51.31306000","longitude":"3.13227000","wikiDataId":"Q328104","type":"administrative","placeRank":14},"Q21770354":{"countryCode":"BE","countyCode":"BE-VLG","code":"Q21770354","name":"Bocholt","latitude":"51.17337000","longitude":"5.57994000","wikiDataId":"Q21770354","type":"administrative","placeRank":14},"Q21770358":{"countryCode":"BE","countyCode":"BE-VLG","code":"Q21770358","name":"Boechout","latitude":"51.15959000","longitude":"4.49195000","wikiDataId":"Q21770358","type":"administrative","placeRank":14},"Q21770391":{"countryCode":"BE","countyCode":"BE-VLG","code":"Q21770391","name":"Bonheiden","latitude":"51.02261000","longitude":"4.54714000","wikiDataId":"Q21770391","type":"administrative","placeRank":14},"Q21770396":{"countryCode":"BE","countyCode":"BE-VLG","code":"Q21770396","name":"Boom","latitude":"51.09242000","longitude":"4.37170000","wikiDataId":"Q21770396","type":"administrative","placeRank":14},"Q21770398":{"countryCode":"BE","countyCode":"BE-VLG","code":"Q21770398","name":"Boortmeerbeek","latitude":"50.97929000","longitude":"4.57443000","wikiDataId":"Q21770398","type":"administrative","placeRank":14},"Q21770402":{"countryCode":"BE","countyCode":"BE-VLG","code":"Q21770402","name":"Borgloon","latitude":"50.80505000","longitude":"5.34366000","wikiDataId":"Q21770402","type":"administrative","placeRank":16},"Q31510162":{"countryCode":"BE","countyCode":"BE-VLG","code":"Q31510162","name":"Bornem","latitude":"51.09716000","longitude":"4.24364000","wikiDataId":"Q31510162","type":"administrative","placeRank":14},"Q21770407":{"countryCode":"BE","countyCode":"BE-VLG","code":"Q21770407","name":"Borsbeek","latitude":"51.19661000","longitude":"4.48543000","wikiDataId":"Q21770407","type":"administrative","placeRank":16},"Q21770446":{"countryCode":"BE","countyCode":"BE-VLG","code":"Q21770446","name":"Boutersem","latitude":"50.83511000","longitude":"4.83450000","wikiDataId":"Q21770446","type":"administrative","placeRank":14},"Q31511597":{"countryCode":"BE","countyCode":"BE-VLG","code":"Q31511597","name":"Brasschaat","latitude":"51.29120000","longitude":"4.49182000","wikiDataId":"Q31511597","type":"administrative","placeRank":14},"Q31511665":{"countryCode":"BE","countyCode":"BE-VLG","code":"Q31511665","name":"Brecht","latitude":"51.35024000","longitude":"4.63829000","wikiDataId":"Q31511665","type":"administrative","placeRank":14},"Q21770466":{"countryCode":"BE","countyCode":"BE-VLG","code":"Q21770466","name":"Bredene","latitude":"51.23489000","longitude":"2.97559000","wikiDataId":"Q21770466","type":"administrative","placeRank":14},"Q21770467":{"countryCode":"BE","countyCode":"BE-VLG","code":"Q21770467","name":"Bree","latitude":"51.14152000","longitude":"5.59690000","wikiDataId":"Q21770467","type":"administrative","placeRank":14},"Q12994":{"countryCode":"BE","countyCode":"BE-VLG","code":"Q12994","name":"Brugge","latitude":"51.20892000","longitude":"3.22424000","wikiDataId":"Q12994","type":"administrative","placeRank":14},"Q21770518":{"countryCode":"BE","countyCode":"BE-VLG","code":"Q21770518","name":"Buggenhout","latitude":"51.01590000","longitude":"4.20173000","wikiDataId":"Q21770518","type":"administrative","placeRank":14},"Q31560704":{"countryCode":"BE","countyCode":"BE-VLG","code":"Q31560704","name":"Damme","latitude":"51.25147000","longitude":"3.28144000","wikiDataId":"Q31560704","type":"administrative","placeRank":14},"Q21768633":{"countryCode":"BE","countyCode":"BE-VLG","code":"Q21768633","name":"De Panne","latitude":"51.09793000","longitude":"2.59368000","wikiDataId":"Q21768633","type":"administrative","placeRank":14},"Q21768637":{"countryCode":"BE","countyCode":"BE-VLG","code":"Q21768637","name":"De Pinte","latitude":"50.99339000","longitude":"3.64747000","wikiDataId":"Q21768637","type":"administrative","placeRank":16},"Q21768611":{"countryCode":"BE","countyCode":"BE-VLG","code":"Q21768611","name":"Deerlijk","latitude":"50.85337000","longitude":"3.35416000","wikiDataId":"Q21768611","type":"administrative","placeRank":14},"Q31564462":{"countryCode":"BE","countyCode":"BE-VLG","code":"Q31564462","name":"Deinze","latitude":"50.98175000","longitude":"3.53096000","wikiDataId":"Q31564462","type":"administrative","placeRank":14},"Q21768627":{"countryCode":"BE","countyCode":"BE-VLG","code":"Q21768627","name":"Denderleeuw","latitude":"50.88506000","longitude":"4.07601000","wikiDataId":"Q21768627","type":"administrative","placeRank":14},"Q31565231":{"countryCode":"BE","countyCode":"BE-VLG","code":"Q31565231","name":"Dendermonde","latitude":"51.02869000","longitude":"4.10106000","wikiDataId":"Q31565231","type":"administrative","placeRank":14},"Q21768632":{"countryCode":"BE","countyCode":"BE-VLG","code":"Q21768632","name":"Dentergem","latitude":"50.96429000","longitude":"3.41617000","wikiDataId":"Q21768632","type":"administrative","placeRank":14},"Q21768646":{"countryCode":"BE","countyCode":"BE-VLG","code":"Q21768646","name":"Dessel","latitude":"51.23855000","longitude":"5.11448000","wikiDataId":"Q21768646","type":"administrative","placeRank":14},"Q21768651":{"countryCode":"BE","countyCode":"BE-VLG","code":"Q21768651","name":"Destelbergen","latitude":"51.22134000","longitude":"4.46595000","wikiDataId":"Q21768651","type":"administrative","placeRank":14},"Q723990":{"countryCode":"BE","countyCode":"BE-VLG","code":"Q723990","name":"Diegem","latitude":"50.89727000","longitude":"4.43354000","wikiDataId":"Q723990","type":"administrative","placeRank":16},"Q21768660":{"countryCode":"BE","countyCode":"BE-VLG","code":"Q21768660","name":"Diepenbeek","latitude":"50.90769000","longitude":"5.41875000","wikiDataId":"Q21768660","type":"administrative","placeRank":16},"Q31566756":{"countryCode":"BE","countyCode":"BE-VLG","code":"Q31566756","name":"Diest","latitude":"50.98923000","longitude":"5.05062000","wikiDataId":"Q31566756","type":"administrative","placeRank":14},"Q21768668":{"countryCode":"BE","countyCode":"BE-VLG","code":"Q21768668","name":"Diksmuide","latitude":"51.03248000","longitude":"2.86384000","wikiDataId":"Q21768668","type":"administrative","placeRank":14},"Q31567150":{"countryCode":"BE","countyCode":"BE-VLG","code":"Q31567150","name":"Dilbeek","latitude":"50.84799000","longitude":"4.25972000","wikiDataId":"Q31567150","type":"administrative","placeRank":14},"Q31571519":{"countryCode":"BE","countyCode":"BE-VLG","code":"Q31571519","name":"Drogenbos","latitude":"50.78733000","longitude":"4.31471000","wikiDataId":"Q31571519","type":"administrative","placeRank":14},"Q21768707":{"countryCode":"BE","countyCode":"BE-VLG","code":"Q21768707","name":"Duffel","latitude":"51.09554000","longitude":"4.50903000","wikiDataId":"Q21768707","type":"administrative","placeRank":14},"Q31575484":{"countryCode":"BE","countyCode":"BE-VLG","code":"Q31575484","name":"Edegem","latitude":"51.15662000","longitude":"4.44504000","wikiDataId":"Q31575484","type":"administrative","placeRank":14},"Q31575952":{"countryCode":"BE","countyCode":"BE-VLG","code":"Q31575952","name":"Eeklo","latitude":"51.18703000","longitude":"3.55654000","wikiDataId":"Q31575952","type":"administrative","placeRank":14},"Q21768786":{"countryCode":"BE","countyCode":"BE-VLG","code":"Q21768786","name":"Essen","latitude":"51.46791000","longitude":"4.46901000","wikiDataId":"Q21768786","type":"administrative","placeRank":14},"Q31579974":{"countryCode":"BE","countyCode":"BE-VLG","code":"Q31579974","name":"Evergem","latitude":"51.11306000","longitude":"3.70976000","wikiDataId":"Q31579974","type":"administrative","placeRank":14},"Q21768971":{"countryCode":"BE","countyCode":"BE-VLG","code":"Q21768971","name":"Galmaarden","latitude":"50.75389000","longitude":"3.97121000","wikiDataId":"Q21768971","type":"administrative","placeRank":16},"Q21768983":{"countryCode":"BE","countyCode":"BE-VLG","code":"Q21768983","name":"Gavere","latitude":"50.92917000","longitude":"3.66184000","wikiDataId":"Q21768983","type":"administrative","placeRank":14},"Q31589706":{"countryCode":"BE","countyCode":"BE-VLG","code":"Q31589706","name":"Geel","latitude":"51.16557000","longitude":"4.98917000","wikiDataId":"Q31589706","type":"administrative","placeRank":14},"Q21768989":{"countryCode":"BE","countyCode":"BE-VLG","code":"Q21768989","name":"Geetbets","latitude":"50.89431000","longitude":"5.11199000","wikiDataId":"Q21768989","type":"administrative","placeRank":14},"Q21769011":{"countryCode":"BE","countyCode":"BE-VLG","code":"Q21769011","name":"Genk","latitude":"50.96500000","longitude":"5.50082000","wikiDataId":"Q21769011","type":"administrative","placeRank":16},"Q31590146":{"countryCode":"BE","countyCode":"BE-VLG","code":"Q31590146","name":"Gent","latitude":"51.05000000","longitude":"3.71667000","wikiDataId":"Q31590146","type":"administrative","placeRank":14},"Q31590351":{"countryCode":"BE","countyCode":"BE-VLG","code":"Q31590351","name":"Geraardsbergen","latitude":"50.77343000","longitude":"3.88223000","wikiDataId":"Q31590351","type":"administrative","placeRank":14},"Q21769045":{"countryCode":"BE","countyCode":"BE-VLG","code":"Q21769045","name":"Gingelom","latitude":"50.74792000","longitude":"5.13422000","wikiDataId":"Q21769045","type":"administrative","placeRank":14},"Q21769047":{"countryCode":"BE","countyCode":"BE-VLG","code":"Q21769047","name":"Gistel","latitude":"50.87267000","longitude":"4.95615000","wikiDataId":"Q21769047","type":"administrative","placeRank":14},"Q31824012":{"countryCode":"BE","countyCode":"BE-VLG","code":"Q31824012","name":"Gooik","latitude":"50.79443000","longitude":"4.11378000","wikiDataId":"Q31824012","type":"administrative","placeRank":16},"Q31824015":{"countryCode":"BE","countyCode":"BE-VLG","code":"Q31824015","name":"Grimbergen","latitude":"50.93409000","longitude":"4.37213000","wikiDataId":"Q31824015","type":"administrative","placeRank":14},"Q21769133":{"countryCode":"BE","countyCode":"BE-VLG","code":"Q21769133","name":"Grobbendonk","latitude":"51.19043000","longitude":"4.73562000","wikiDataId":"Q21769133","type":"administrative","placeRank":14},"Q21767623":{"countryCode":"BE","countyCode":"BE-VLG","code":"Q21767623","name":"Haacht","latitude":"50.97737000","longitude":"4.63777000","wikiDataId":"Q21767623","type":"administrative","placeRank":14},"Q21767627":{"countryCode":"BE","countyCode":"BE-WAL","code":"Q21767627","name":"Haaltert","latitude":"49.72329000","longitude":"5.61999000","wikiDataId":"Q21767627","type":"administrative","placeRank":14},"Q31824016":{"countryCode":"BE","countyCode":"BE-VLG","code":"Q31824016","name":"Halen","latitude":"50.94837000","longitude":"5.11096000","wikiDataId":"Q31824016","type":"administrative","placeRank":14},"Q31824017":{"countryCode":"BE","countyCode":"BE-VLG","code":"Q31824017","name":"Halle","latitude":"50.73385000","longitude":"4.23454000","wikiDataId":"Q31824017","type":"administrative","placeRank":14},"Q31811416":{"countryCode":"BE","countyCode":"BE-VLG","code":"Q31811416","name":"Hamme","latitude":"51.09822000","longitude":"4.13705000","wikiDataId":"Q31811416","type":"administrative","placeRank":14},"Q31824027":{"countryCode":"BE","countyCode":"BE-VLG","code":"Q31824027","name":"Harelbeke","latitude":"50.85343000","longitude":"3.30935000","wikiDataId":"Q31824027","type":"administrative","placeRank":14},"Q21767697":{"countryCode":"BE","countyCode":"BE-VLG","code":"Q21767697","name":"Hasselt","latitude":"50.93106000","longitude":"5.33781000","wikiDataId":"Q21767697","type":"administrative","placeRank":14},"Q21767739":{"countryCode":"BE","countyCode":"BE-VLG","code":"Q21767739","name":"Heers","latitude":"50.75383000","longitude":"5.30210000","wikiDataId":"Q21767739","type":"administrative","placeRank":14},"Q31824028":{"countryCode":"BE","countyCode":"BE-VLG","code":"Q31824028","name":"Heist-op-den-Berg","latitude":"51.05591000","longitude":"5.38244000","wikiDataId":"Q31824028","type":"administrative","placeRank":14},"Q21767764":{"countryCode":"BE","countyCode":"BE-VLG","code":"Q21767764","name":"Hemiksem","latitude":"51.14484000","longitude":"4.33874000","wikiDataId":"Q21767764","type":"administrative","placeRank":14},"Q31824029":{"countryCode":"BE","countyCode":"BE-VLG","code":"Q31824029","name":"Herent","latitude":"50.90861000","longitude":"4.67056000","wikiDataId":"Q31824029","type":"administrative","placeRank":14},"Q31824030":{"countryCode":"BE","countyCode":"BE-VLG","code":"Q31824030","name":"Herentals","latitude":"51.17655000","longitude":"4.83248000","wikiDataId":"Q31824030","type":"administrative","placeRank":14},"Q21767782":{"countryCode":"BE","countyCode":"BE-VLG","code":"Q21767782","name":"Herenthout","latitude":"51.14010000","longitude":"4.75572000","wikiDataId":"Q21767782","type":"administrative","placeRank":14},"Q21767785":{"countryCode":"BE","countyCode":"BE-VLG","code":"Q21767785","name":"Herk-de-Stad","latitude":"50.94013000","longitude":"5.16636000","wikiDataId":"Q21767785","type":"administrative","placeRank":14},"Q21767790":{"countryCode":"BE","countyCode":"BE-VLG","code":"Q21767790","name":"Herne","latitude":"50.72423000","longitude":"4.03481000","wikiDataId":"Q21767790","type":"administrative","placeRank":16},"Q21767799":{"countryCode":"BE","countyCode":"BE-WAL","code":"Q21767799","name":"Herselt","latitude":"50.66415000","longitude":"5.62346000","wikiDataId":"Q21767799","type":"administrative","placeRank":14},"Q21767811":{"countryCode":"BE","countyCode":"BE-VLG","code":"Q21767811","name":"Herzele","latitude":"51.03664000","longitude":"5.28013000","wikiDataId":"Q21767811","type":"administrative","placeRank":14},"Q267663":{"countryCode":"BE","countyCode":"BE-VLG","code":"Q267663","name":"Hoboken","latitude":"51.17611000","longitude":"4.34844000","wikiDataId":"Q267663","type":"administrative","placeRank":16},"Q31824032":{"countryCode":"BE","countyCode":"BE-VLG","code":"Q31824032","name":"Hoegaarden","latitude":"50.77560000","longitude":"4.88952000","wikiDataId":"Q31824032","type":"administrative","placeRank":14},"Q21767840":{"countryCode":"BE","countyCode":"BE-VLG","code":"Q21767840","name":"Hoeilaart","latitude":"50.76730000","longitude":"4.46835000","wikiDataId":"Q21767840","type":"administrative","placeRank":16},"Q21767843":{"countryCode":"BE","countyCode":"BE-VLG","code":"Q21767843","name":"Hoeselt","latitude":"50.84714000","longitude":"5.48767000","wikiDataId":"Q21767843","type":"administrative","placeRank":16},"Q21767868":{"countryCode":"BE","countyCode":"BE-VLG","code":"Q21767868","name":"Holsbeek","latitude":"50.92097000","longitude":"4.75747000","wikiDataId":"Q21767868","type":"administrative","placeRank":14},"Q21767880":{"countryCode":"BE","countyCode":"BE-VLG","code":"Q21767880","name":"Hooglede","latitude":"50.98333000","longitude":"3.08333000","wikiDataId":"Q21767880","type":"administrative","placeRank":14},"Q31824034":{"countryCode":"BE","countyCode":"BE-VLG","code":"Q31824034","name":"Hoogstraten","latitude":"51.40029000","longitude":"4.76034000","wikiDataId":"Q31824034","type":"administrative","placeRank":14},"Q21767908":{"countryCode":"BE","countyCode":"BE-VLG","code":"Q21767908","name":"Houthulst","latitude":"50.97824000","longitude":"2.95050000","wikiDataId":"Q21767908","type":"administrative","placeRank":14},"Q21767915":{"countryCode":"BE","countyCode":"BE-VLG","code":"Q21767915","name":"Hove","latitude":"51.15446000","longitude":"4.47070000","wikiDataId":"Q21767915","type":"administrative","placeRank":14},"Q21767922":{"countryCode":"BE","countyCode":"BE-VLG","code":"Q21767922","name":"Huldenberg","latitude":"50.78939000","longitude":"4.58310000","wikiDataId":"Q21767922","type":"administrative","placeRank":14},"Q21767926":{"countryCode":"BE","countyCode":"BE-VLG","code":"Q21767926","name":"Hulshout","latitude":"51.07451000","longitude":"4.79081000","wikiDataId":"Q21767926","type":"administrative","placeRank":14},"Q21767935":{"countryCode":"BE","countyCode":"BE-VLG","code":"Q21767935","name":"Ichtegem","latitude":"51.09572000","longitude":"3.01549000","wikiDataId":"Q21767935","type":"administrative","placeRank":14},"Q31824036":{"countryCode":"BE","countyCode":"BE-VLG","code":"Q31824036","name":"Ieper","latitude":"50.85114000","longitude":"2.88569000","wikiDataId":"Q31824036","type":"administrative","placeRank":14},"Q21767948":{"countryCode":"BE","countyCode":"BE-VLG","code":"Q21767948","name":"Ingelmunster","latitude":"50.92081000","longitude":"3.25571000","wikiDataId":"Q21767948","type":"administrative","placeRank":16},"Q31811524":{"countryCode":"BE","countyCode":"BE-VLG","code":"Q31811524","name":"Izegem","latitude":"50.91396000","longitude":"3.21378000","wikiDataId":"Q31811524","type":"administrative","placeRank":14},"Q21767957":{"countryCode":"BE","countyCode":"BE-VLG","code":"Q21767957","name":"Jabbeke","latitude":"51.18185000","longitude":"3.08935000","wikiDataId":"Q21767957","type":"administrative","placeRank":14},"Q21767145":{"countryCode":"BE","countyCode":"BE-VLG","code":"Q21767145","name":"Kalmthout","latitude":"51.38442000","longitude":"4.47556000","wikiDataId":"Q21767145","type":"administrative","placeRank":14},"Q31824039":{"countryCode":"BE","countyCode":"BE-VLG","code":"Q31824039","name":"Kampenhout","latitude":"50.94210000","longitude":"4.55103000","wikiDataId":"Q31824039","type":"administrative","placeRank":14},"Q21767154":{"countryCode":"BE","countyCode":"BE-VLG","code":"Q21767154","name":"Kapelle-op-den-Bos","latitude":"51.00970000","longitude":"4.36303000","wikiDataId":"Q21767154","type":"administrative","placeRank":14},"Q31824040":{"countryCode":"BE","countyCode":"BE-VLG","code":"Q31824040","name":"Kapellen","latitude":"51.31377000","longitude":"4.43539000","wikiDataId":"Q31824040","type":"administrative","placeRank":16},"Q21767157":{"countryCode":"BE","countyCode":"BE-VLG","code":"Q21767157","name":"Kaprijke","latitude":"51.21720000","longitude":"3.61519000","wikiDataId":"Q21767157","type":"administrative","placeRank":14},"Q21767175":{"countryCode":"BE","countyCode":"BE-VLG","code":"Q21767175","name":"Kasterlee","latitude":"51.24118000","longitude":"4.96651000","wikiDataId":"Q21767175","type":"administrative","placeRank":14},"Q21767185":{"countryCode":"BE","countyCode":"BE-VLG","code":"Q21767185","name":"Keerbergen","latitude":"51.00295000","longitude":"4.63434000","wikiDataId":"Q21767185","type":"administrative","placeRank":14},"Q21767215":{"countryCode":"BE","countyCode":"BE-VLG","code":"Q21767215","name":"Kinrooi","latitude":"51.14543000","longitude":"5.74207000","wikiDataId":"Q21767215","type":"administrative","placeRank":14},"Q21767265":{"countryCode":"BE","countyCode":"BE-VLG","code":"Q21767265","name":"Knesselare","latitude":"51.13932000","longitude":"3.41282000","wikiDataId":"Q21767265","type":"administrative","placeRank":16},"Q31824041":{"countryCode":"BE","countyCode":"BE-VLG","code":"Q31824041","name":"Knokke-Heist","latitude":"51.35000000","longitude":"3.26667000","wikiDataId":"Q31824041","type":"administrative","placeRank":14},"Q21767270":{"countryCode":"BE","countyCode":"BE-VLG","code":"Q21767270","name":"Koekelare","latitude":"51.09047000","longitude":"2.97830000","wikiDataId":"Q21767270","type":"administrative","placeRank":14},"Q31824055":{"countryCode":"BE","countyCode":"BE-VLG","code":"Q31824055","name":"Kontich","latitude":"51.13213000","longitude":"4.44706000","wikiDataId":"Q31824055","type":"administrative","placeRank":14},"Q21767292":{"countryCode":"BE","countyCode":"BE-VLG","code":"Q21767292","name":"Kortemark","latitude":"51.02951000","longitude":"3.04112000","wikiDataId":"Q21767292","type":"administrative","placeRank":14},"Q21767293":{"countryCode":"BE","countyCode":"BE-VLG","code":"Q21767293","name":"Kortenaken","latitude":"50.90862000","longitude":"5.05968000","wikiDataId":"Q21767293","type":"administrative","placeRank":14},"Q21767295":{"countryCode":"BE","countyCode":"BE-VLG","code":"Q21767295","name":"Kortenberg","latitude":"50.88982000","longitude":"4.54353000","wikiDataId":"Q21767295","type":"administrative","placeRank":14},"Q21767297":{"countryCode":"BE","countyCode":"BE-VLG","code":"Q21767297","name":"Kortessem","latitude":"50.85890000","longitude":"5.38974000","wikiDataId":"Q21767297","type":"administrative","placeRank":16},"Q21767298":{"countryCode":"BE","countyCode":"BE-VLG","code":"Q21767298","name":"Kortrijk","latitude":"50.82803000","longitude":"3.26487000","wikiDataId":"Q21767298","type":"administrative","placeRank":14},"Q31824063":{"countryCode":"BE","countyCode":"BE-VLG","code":"Q31824063","name":"Kraainem","latitude":"50.86155000","longitude":"4.46946000","wikiDataId":"Q31824063","type":"administrative","placeRank":14},"Q21767327":{"countryCode":"BE","countyCode":"BE-VLG","code":"Q21767327","name":"Kruibeke","latitude":"51.17048000","longitude":"4.31444000","wikiDataId":"Q21767327","type":"administrative","placeRank":16},"Q21767332":{"countryCode":"BE","countyCode":"BE-VLG","code":"Q21767332","name":"Kruishoutem","latitude":"50.90168000","longitude":"3.52588000","wikiDataId":"Q21767332","type":"administrative","placeRank":16},"Q21767334":{"countryCode":"BE","countyCode":"BE-WAL","code":"Q21767334","name":"Kuurne","latitude":"50.39478000","longitude":"4.61444000","wikiDataId":"Q21767334","type":"administrative","placeRank":14},"Q21767343":{"countryCode":"BE","countyCode":"BE-VLG","code":"Q21767343","name":"Laarne","latitude":"51.03078000","longitude":"3.85077000","wikiDataId":"Q21767343","type":"administrative","placeRank":14},"Q31824076":{"countryCode":"BE","countyCode":"BE-VLG","code":"Q31824076","name":"Lanaken","latitude":"50.89318000","longitude":"5.64680000","wikiDataId":"Q31824076","type":"administrative","placeRank":14},"Q21765449":{"countryCode":"BE","countyCode":"BE-VLG","code":"Q21765449","name":"Landen","latitude":"50.75267000","longitude":"5.08200000","wikiDataId":"Q21765449","type":"administrative","placeRank":14},"Q21765489":{"countryCode":"BE","countyCode":"BE-VLG","code":"Q21765489","name":"Lebbeke","latitude":"51.00464000","longitude":"4.13457000","wikiDataId":"Q21765489","type":"administrative","placeRank":14},"Q21765497":{"countryCode":"BE","countyCode":"BE-VLG","code":"Q21765497","name":"Lede","latitude":"50.96626000","longitude":"3.98594000","wikiDataId":"Q21765497","type":"administrative","placeRank":14},"Q2802143":{"countryCode":"BE","countyCode":"BE-VLG","code":"Q2802143","name":"Ledeberg","latitude":"51.03859000","longitude":"3.74458000","wikiDataId":"Q2802143","type":"administrative","placeRank":16},"Q21765501":{"countryCode":"BE","countyCode":"BE-VLG","code":"Q21765501","name":"Ledegem","latitude":"50.85785000","longitude":"3.12409000","wikiDataId":"Q21765501","type":"administrative","placeRank":14},"Q21765541":{"countryCode":"BE","countyCode":"BE-VLG","code":"Q21765541","name":"Lendelede","latitude":"50.88626000","longitude":"3.23747000","wikiDataId":"Q21765541","type":"administrative","placeRank":16},"Q21765544":{"countryCode":"BE","countyCode":"BE-VLG","code":"Q21765544","name":"Leopoldsburg","latitude":"51.11667000","longitude":"5.25000000","wikiDataId":"Q21765544","type":"administrative","placeRank":14},"Q21765562":{"countryCode":"BE","countyCode":"BE-VLG","code":"Q21765562","name":"Leuven","latitude":"50.87959000","longitude":"4.70093000","wikiDataId":"Q21765562","type":"administrative","placeRank":14},"Q21765568":{"countryCode":"BE","countyCode":"BE-VLG","code":"Q21765568","name":"Lichtervelde","latitude":"51.03333000","longitude":"3.15000000","wikiDataId":"Q21765568","type":"administrative","placeRank":16},"Q31824078":{"countryCode":"BE","countyCode":"BE-VLG","code":"Q31824078","name":"Liedekerke","latitude":"50.86892000","longitude":"4.08743000","wikiDataId":"Q31824078","type":"administrative","placeRank":14},"Q31824079":{"countryCode":"BE","countyCode":"BE-VLG","code":"Q31824079","name":"Lier","latitude":"51.13128000","longitude":"4.57041000","wikiDataId":"Q31824079","type":"administrative","placeRank":14},"Q21765583":{"countryCode":"BE","countyCode":"BE-VLG","code":"Q21765583","name":"Lille","latitude":"51.24197000","longitude":"4.82313000","wikiDataId":"Q21765583","type":"administrative","placeRank":14},"Q31824080":{"countryCode":"BE","countyCode":"BE-VLG","code":"Q31824080","name":"Linkebeek","latitude":"50.76781000","longitude":"4.33688000","wikiDataId":"Q31824080","type":"administrative","placeRank":14},"Q21765593":{"countryCode":"BE","countyCode":"BE-WAL","code":"Q21765593","name":"Lint","latitude":"50.63373000","longitude":"5.56749000","wikiDataId":"Q21765593","type":"administrative","placeRank":14},"Q31824081":{"countryCode":"BE","countyCode":"BE-VLG","code":"Q31824081","name":"Lochristi","latitude":"51.10364000","longitude":"3.99339000","wikiDataId":"Q31824081","type":"administrative","placeRank":14},"Q31824084":{"countryCode":"BE","countyCode":"BE-VLG","code":"Q31824084","name":"Lommel","latitude":"51.23074000","longitude":"5.31349000","wikiDataId":"Q31824084","type":"administrative","placeRank":14},"Q31824085":{"countryCode":"BE","countyCode":"BE-VLG","code":"Q31824085","name":"Londerzeel","latitude":"51.00468000","longitude":"4.30304000","wikiDataId":"Q31824085","type":"administrative","placeRank":14},"Q21765635":{"countryCode":"BE","countyCode":"BE-VLG","code":"Q21765635","name":"Lovendegem","latitude":"51.10168000","longitude":"3.61298000","wikiDataId":"Q21765635","type":"administrative","placeRank":16},"Q21765640":{"countryCode":"BE","countyCode":"BE-VLG","code":"Q21765640","name":"Lubbeek","latitude":"50.88278000","longitude":"4.83896000","wikiDataId":"Q21765640","type":"administrative","placeRank":14},"Q21765647":{"countryCode":"BE","countyCode":"BE-VLG","code":"Q21765647","name":"Lummen","latitude":"50.98772000","longitude":"5.19121000","wikiDataId":"Q21765647","type":"administrative","placeRank":14},"Q31824086":{"countryCode":"BE","countyCode":"BE-VLG","code":"Q31824086","name":"Maaseik","latitude":"50.96545000","longitude":"5.69452000","wikiDataId":"Q31824086","type":"administrative","placeRank":14},"Q21765652":{"countryCode":"BE","countyCode":"BE-VLG","code":"Q21765652","name":"Machelen","latitude":"50.91061000","longitude":"4.44174000","wikiDataId":"Q21765652","type":"administrative","placeRank":14},"Q31824087":{"countryCode":"BE","countyCode":"BE-VLG","code":"Q31824087","name":"Maldegem","latitude":"51.20737000","longitude":"3.44511000","wikiDataId":"Q31824087","type":"administrative","placeRank":14},"Q21765751":{"countryCode":"BE","countyCode":"BE-VLG","code":"Q21765751","name":"Mechelen","latitude":"51.02574000","longitude":"4.47762000","wikiDataId":"Q21765751","type":"administrative","placeRank":14},"Q21765759":{"countryCode":"BE","countyCode":"BE-VLG","code":"Q21765759","name":"Meerhout","latitude":"51.13210000","longitude":"5.07842000","wikiDataId":"Q21765759","type":"administrative","placeRank":14},"Q31824090":{"countryCode":"BE","countyCode":"BE-VLG","code":"Q31824090","name":"Meise","latitude":"50.93934000","longitude":"4.32655000","wikiDataId":"Q31824090","type":"administrative","placeRank":14},"Q21765771":{"countryCode":"BE","countyCode":"BE-VLG","code":"Q21765771","name":"Melle","latitude":"51.00232000","longitude":"3.80526000","wikiDataId":"Q21765771","type":"administrative","placeRank":16},"Q31824091":{"countryCode":"BE","countyCode":"BE-VLG","code":"Q31824091","name":"Menen","latitude":"50.79722000","longitude":"3.12245000","wikiDataId":"Q31824091","type":"administrative","placeRank":14},"Q21765786":{"countryCode":"BE","countyCode":"BE-VLG","code":"Q21765786","name":"Merchtem","latitude":"50.95129000","longitude":"4.23197000","wikiDataId":"Q21765786","type":"administrative","placeRank":14},"Q31824092":{"countryCode":"BE","countyCode":"BE-VLG","code":"Q31824092","name":"Merelbeke","latitude":"50.99447000","longitude":"3.74621000","wikiDataId":"Q31824092","type":"administrative","placeRank":16},"Q21765789":{"countryCode":"BE","countyCode":"BE-VLG","code":"Q21765789","name":"Merksplas","latitude":"51.35851000","longitude":"4.86513000","wikiDataId":"Q21765789","type":"administrative","placeRank":14},"Q21765800":{"countryCode":"BE","countyCode":"BE-VLG","code":"Q21765800","name":"Meulebeke","latitude":"50.95136000","longitude":"3.28804000","wikiDataId":"Q21765800","type":"administrative","placeRank":16},"Q21765816":{"countryCode":"BE","countyCode":"BE-VLG","code":"Q21765816","name":"Middelkerke","latitude":"51.18532000","longitude":"2.82077000","wikiDataId":"Q21765816","type":"administrative","placeRank":14},"Q21765833":{"countryCode":"BE","countyCode":"BE-VLG","code":"Q21765833","name":"Moerbeke","latitude":"51.17409000","longitude":"3.93001000","wikiDataId":"Q21765833","type":"administrative","placeRank":16},"Q31824099":{"countryCode":"BE","countyCode":"BE-VLG","code":"Q31824099","name":"Mol","latitude":"51.19188000","longitude":"5.11662000","wikiDataId":"Q31824099","type":"administrative","placeRank":14},"Q21765968":{"countryCode":"BE","countyCode":"BE-VLG","code":"Q21765968","name":"Moorslede","latitude":"50.89190000","longitude":"3.06117000","wikiDataId":"Q21765968","type":"administrative","placeRank":14},"Q31824113":{"countryCode":"BE","countyCode":"BE-VLG","code":"Q31824113","name":"Mortsel","latitude":"51.16697000","longitude":"4.45127000","wikiDataId":"Q31824113","type":"administrative","placeRank":14},"Q21766031":{"countryCode":"BE","countyCode":"BE-VLG","code":"Q21766031","name":"Nazareth","latitude":"50.95686000","longitude":"3.59425000","wikiDataId":"Q21766031","type":"administrative","placeRank":16},"Q16481661":{"countryCode":"BE","countyCode":"BE-VLG","code":"Q16481661","name":"Neerpelt","latitude":"51.22807000","longitude":"5.44270000","wikiDataId":"Q16481661","type":"administrative","placeRank":16},"Q21766064":{"countryCode":"BE","countyCode":"BE-VLG","code":"Q21766064","name":"Nevele","latitude":"51.03531000","longitude":"3.54574000","wikiDataId":"Q21766064","type":"administrative","placeRank":16},"Q21766070":{"countryCode":"BE","countyCode":"BE-VLG","code":"Q21766070","name":"Niel","latitude":"51.11096000","longitude":"4.33428000","wikiDataId":"Q21766070","type":"administrative","placeRank":14},"Q21766078":{"countryCode":"BE","countyCode":"BE-VLG","code":"Q21766078","name":"Nieuwerkerken","latitude":"50.86380000","longitude":"5.19467000","wikiDataId":"Q21766078","type":"administrative","placeRank":14},"Q21766081":{"countryCode":"BE","countyCode":"BE-VLG","code":"Q21766081","name":"Nieuwpoort","latitude":"51.13008000","longitude":"2.75135000","wikiDataId":"Q21766081","type":"administrative","placeRank":14},"Q31824122":{"countryCode":"BE","countyCode":"BE-VLG","code":"Q31824122","name":"Nijlen","latitude":"51.16096000","longitude":"4.67008000","wikiDataId":"Q31824122","type":"administrative","placeRank":14},"Q31812647":{"countryCode":"BE","countyCode":"BE-VLG","code":"Q31812647","name":"Ninove","latitude":"50.82776000","longitude":"4.02657000","wikiDataId":"Q31812647","type":"administrative","placeRank":14},"Q21766128":{"countryCode":"BE","countyCode":"BE-VLG","code":"Q21766128","name":"Olen","latitude":"51.14391000","longitude":"4.85980000","wikiDataId":"Q21766128","type":"administrative","placeRank":14},"Q21764228":{"countryCode":"BE","countyCode":"BE-VLG","code":"Q21764228","name":"Oosterzele","latitude":"50.95261000","longitude":"3.79826000","wikiDataId":"Q21764228","type":"administrative","placeRank":14},"Q18479689":{"countryCode":"BE","countyCode":"BE-VLG","code":"Q18479689","name":"Oostkamp","latitude":"51.30000000","longitude":"4.73333000","wikiDataId":"Q18479689","type":"administrative","placeRank":14},"Q21764231":{"countryCode":"BE","countyCode":"BE-VLG","code":"Q21764231","name":"Oostrozebeke","latitude":"50.92093000","longitude":"3.33799000","wikiDataId":"Q21764231","type":"administrative","placeRank":16},"Q21764233":{"countryCode":"BE","countyCode":"BE-VLG","code":"Q21764233","name":"Opglabbeek","latitude":"51.04258000","longitude":"5.58346000","wikiDataId":"Q21764233","type":"administrative","placeRank":16},"Q21764240":{"countryCode":"BE","countyCode":"BE-VLG","code":"Q21764240","name":"Opwijk","latitude":"50.96724000","longitude":"4.18442000","wikiDataId":"Q21764240","type":"administrative","placeRank":14},"Q21766156":{"countryCode":"BE","countyCode":"BE-VLG","code":"Q21766156","name":"Oostende","latitude":"51.21551000","longitude":"2.92700000","wikiDataId":"Q21766156","type":"administrative","placeRank":14},"Q21764275":{"countryCode":"BE","countyCode":"BE-VLG","code":"Q21764275","name":"Oud-Heverlee","latitude":"50.83522000","longitude":"4.66421000","wikiDataId":"Q21764275","type":"administrative","placeRank":14},"Q21764277":{"countryCode":"BE","countyCode":"BE-VLG","code":"Q21764277","name":"Oud-Turnhout","latitude":"51.31978000","longitude":"4.98410000","wikiDataId":"Q21764277","type":"administrative","placeRank":14},"Q31824126":{"countryCode":"BE","countyCode":"BE-VLG","code":"Q31824126","name":"Oudenaarde","latitude":"50.85168000","longitude":"3.60891000","wikiDataId":"Q31824126","type":"administrative","placeRank":14},"Q21764272":{"countryCode":"BE","countyCode":"BE-VLG","code":"Q21764272","name":"Oudenburg","latitude":"51.18489000","longitude":"3.00035000","wikiDataId":"Q21764272","type":"administrative","placeRank":14},"Q31824128":{"countryCode":"BE","countyCode":"BE-VLG","code":"Q31824128","name":"Overijse","latitude":"50.77436000","longitude":"4.53461000","wikiDataId":"Q31824128","type":"administrative","placeRank":14},"Q21764289":{"countryCode":"BE","countyCode":"BE-VLG","code":"Q21764289","name":"Overpelt","latitude":"51.21038000","longitude":"5.41557000","wikiDataId":"Q21764289","type":"administrative","placeRank":16},"Q21764310":{"countryCode":"BE","countyCode":"BE-VLG","code":"Q21764310","name":"Peer","latitude":"51.13030000","longitude":"5.45952000","wikiDataId":"Q21764310","type":"administrative","placeRank":14},"Q21764319":{"countryCode":"BE","countyCode":"BE-VLG","code":"Q21764319","name":"Pepingen","latitude":"50.75922000","longitude":"4.15983000","wikiDataId":"Q21764319","type":"administrative","placeRank":14},"Q21764368":{"countryCode":"BE","countyCode":"BE-VLG","code":"Q21764368","name":"Pittem","latitude":"50.99279000","longitude":"3.26317000","wikiDataId":"Q21764368","type":"administrative","placeRank":14},"Q31475234":{"countryCode":"BE","countyCode":"BE-VLG","code":"Q31475234","name":"Poperinge","latitude":"50.85386000","longitude":"2.72659000","wikiDataId":"Q31475234","type":"administrative","placeRank":14},"Q21764443":{"countryCode":"BE","countyCode":"BE-VLG","code":"Q21764443","name":"Putte","latitude":"51.05337000","longitude":"4.63263000","wikiDataId":"Q21764443","type":"administrative","placeRank":14},"Q21764446":{"countryCode":"BE","countyCode":"BE-VLG","code":"Q21764446","name":"Puurs","latitude":"51.07409000","longitude":"4.28844000","wikiDataId":"Q21764446","type":"administrative","placeRank":16},"Q21764475":{"countryCode":"BE","countyCode":"BE-VLG","code":"Q21764475","name":"Ranst","latitude":"51.18983000","longitude":"4.56533000","wikiDataId":"Q21764475","type":"administrative","placeRank":14},"Q21764482":{"countryCode":"BE","countyCode":"BE-WAL","code":"Q21764482","name":"Ravels","latitude":"50.65147000","longitude":"4.10683000","wikiDataId":"Q21764482","type":"administrative","placeRank":14},"Q21764513":{"countryCode":"BE","countyCode":"BE-VLG","code":"Q21764513","name":"Retie","latitude":"51.26652000","longitude":"5.08242000","wikiDataId":"Q21764513","type":"administrative","placeRank":14},"Q21764528":{"countryCode":"BE","countyCode":"BE-VLG","code":"Q21764528","name":"Riemst","latitude":"50.80995000","longitude":"5.60131000","wikiDataId":"Q21764528","type":"administrative","placeRank":14},"Q21764534":{"countryCode":"BE","countyCode":"BE-VLG","code":"Q21764534","name":"Rijkevorsel","latitude":"51.34795000","longitude":"4.76053000","wikiDataId":"Q21764534","type":"administrative","placeRank":14},"Q31493468":{"countryCode":"BE","countyCode":"BE-VLG","code":"Q31493468","name":"Ronse","latitude":"50.74574000","longitude":"3.60050000","wikiDataId":"Q31493468","type":"administrative","placeRank":14},"Q21764627":{"countryCode":"BE","countyCode":"BE-VLG","code":"Q21764627","name":"Rotselaar","latitude":"50.95302000","longitude":"4.71665000","wikiDataId":"Q21764627","type":"administrative","placeRank":14},"Q21764643":{"countryCode":"BE","countyCode":"BE-VLG","code":"Q21764643","name":"Ruiselede","latitude":"51.04039000","longitude":"3.39416000","wikiDataId":"Q21764643","type":"administrative","placeRank":16},"Q21764648":{"countryCode":"BE","countyCode":"BE-VLG","code":"Q21764648","name":"Rumst","latitude":"51.08153000","longitude":"4.42217000","wikiDataId":"Q21764648","type":"administrative","placeRank":14},"Q21764741":{"countryCode":"BE","countyCode":"BE-VLG","code":"Q21764741","name":"Schelle","latitude":"51.12615000","longitude":"4.34114000","wikiDataId":"Q21764741","type":"administrative","placeRank":14},"Q31514505":{"countryCode":"BE","countyCode":"BE-VLG","code":"Q31514505","name":"Schilde","latitude":"51.24107000","longitude":"4.58336000","wikiDataId":"Q31514505","type":"administrative","placeRank":14},"Q31514684":{"countryCode":"BE","countyCode":"BE-VLG","code":"Q31514684","name":"Schoten","latitude":"51.25251000","longitude":"4.50268000","wikiDataId":"Q31514684","type":"administrative","placeRank":14},"Q21764799":{"countryCode":"BE","countyCode":"BE-VLG","code":"Q21764799","name":"Sint-Amands","latitude":"51.05645000","longitude":"4.20957000","wikiDataId":"Q21764799","type":"administrative","placeRank":16},"Q21764808":{"countryCode":"BE","countyCode":"BE-VLG","code":"Q21764808","name":"Sint-Genesius-Rode","latitude":"50.74645000","longitude":"4.35754000","wikiDataId":"Q21764808","type":"administrative","placeRank":14},"Q21764811":{"countryCode":"BE","countyCode":"BE-VLG","code":"Q21764811","name":"Sint-Gillis-Waas","latitude":"50.87117000","longitude":"5.27200000","wikiDataId":"Q21764811","type":"administrative","placeRank":14},"Q31521084":{"countryCode":"BE","countyCode":"BE-VLG","code":"Q31521084","name":"Sint-Katelijne-Waver","latitude":"51.06691000","longitude":"4.53469000","wikiDataId":"Q31521084","type":"administrative","placeRank":14},"Q2505670":{"countryCode":"BE","countyCode":"BE-VLG","code":"Q2505670","name":"Sint-Kruis","latitude":"51.21399000","longitude":"3.24949000","wikiDataId":"Q2505670","type":"administrative","placeRank":16},"Q21764820":{"countryCode":"BE","countyCode":"BE-VLG","code":"Q21764820","name":"Sint-Laureins","latitude":"51.24202000","longitude":"3.52441000","wikiDataId":"Q21764820","type":"administrative","placeRank":14},"Q21764821":{"countryCode":"BE","countyCode":"BE-VLG","code":"Q21764821","name":"Sint-Lievens-Houtem","latitude":"50.81867000","longitude":"3.84436000","wikiDataId":"Q21764821","type":"administrative","placeRank":14},"Q21764825":{"countryCode":"BE","countyCode":"BE-VLG","code":"Q21764825","name":"Sint-Martens-Latem","latitude":"50.81158000","longitude":"4.16965000","wikiDataId":"Q21764825","type":"administrative","placeRank":14},"Q31521097":{"countryCode":"BE","countyCode":"BE-VLG","code":"Q31521097","name":"Sint-Niklaas","latitude":"51.16509000","longitude":"4.14370000","wikiDataId":"Q31521097","type":"administrative","placeRank":14},"Q31521115":{"countryCode":"BE","countyCode":"BE-VLG","code":"Q31521115","name":"Sint-Pieters-Leeuw","latitude":"50.73863000","longitude":"5.82224000","wikiDataId":"Q31521115","type":"administrative","placeRank":14},"Q15281225":{"countryCode":"BE","countyCode":"BE-VLG","code":"Q15281225","name":"Sint-Truiden","latitude":"50.81679000","longitude":"5.18647000","wikiDataId":"Q15281225","type":"administrative","placeRank":14},"Q21763334":{"countryCode":"BE","countyCode":"BE-VLG","code":"Q21763334","name":"Stabroek","latitude":"51.33189000","longitude":"4.37127000","wikiDataId":"Q21763334","type":"administrative","placeRank":14},"Q21763337":{"countryCode":"BE","countyCode":"BE-VLG","code":"Q21763337","name":"Staden","latitude":"50.97456000","longitude":"3.01469000","wikiDataId":"Q21763337","type":"administrative","placeRank":14},"Q31532875":{"countryCode":"BE","countyCode":"BE-VLG","code":"Q31532875","name":"Steenokkerzeel","latitude":"50.91851000","longitude":"4.50989000","wikiDataId":"Q31532875","type":"administrative","placeRank":14},"Q21763382":{"countryCode":"BE","countyCode":"BE-VLG","code":"Q21763382","name":"Stekene","latitude":"51.20990000","longitude":"4.03651000","wikiDataId":"Q21763382","type":"administrative","placeRank":14},"Q31549581":{"countryCode":"BE","countyCode":"BE-VLG","code":"Q31549581","name":"Temse","latitude":"51.12794000","longitude":"4.21372000","wikiDataId":"Q31549581","type":"administrative","placeRank":14},"Q21763440":{"countryCode":"BE","countyCode":"BE-VLG","code":"Q21763440","name":"Ternat","latitude":"50.86654000","longitude":"4.16682000","wikiDataId":"Q21763440","type":"administrative","placeRank":14},"Q31550469":{"countryCode":"BE","countyCode":"BE-VLG","code":"Q31550469","name":"Tervuren","latitude":"50.82372000","longitude":"4.51418000","wikiDataId":"Q31550469","type":"administrative","placeRank":14},"Q21763441":{"countryCode":"BE","countyCode":"BE-VLG","code":"Q21763441","name":"Tessenderlo","latitude":"51.06513000","longitude":"5.08856000","wikiDataId":"Q21763441","type":"administrative","placeRank":16},"Q31555423":{"countryCode":"BE","countyCode":"BE-VLG","code":"Q31555423","name":"Tielt","latitude":"50.99931000","longitude":"3.32707000","wikiDataId":"Q31555423","type":"administrative","placeRank":14},"Q31555441":{"countryCode":"BE","countyCode":"BE-VLG","code":"Q31555441","name":"Tienen","latitude":"50.80745000","longitude":"4.93780000","wikiDataId":"Q31555441","type":"administrative","placeRank":14},"Q31558934":{"countryCode":"BE","countyCode":"BE-VLG","code":"Q31558934","name":"Tongeren","latitude":"50.78054000","longitude":"5.46484000","wikiDataId":"Q31558934","type":"administrative","placeRank":16},"Q31559193":{"countryCode":"BE","countyCode":"BE-VLG","code":"Q31559193","name":"Torhout","latitude":"51.06560000","longitude":"3.10085000","wikiDataId":"Q31559193","type":"administrative","placeRank":16},"Q21763503":{"countryCode":"BE","countyCode":"BE-VLG","code":"Q21763503","name":"Tremelo","latitude":"50.99231000","longitude":"4.70807000","wikiDataId":"Q21763503","type":"administrative","placeRank":14},"Q31565056":{"countryCode":"BE","countyCode":"BE-VLG","code":"Q31565056","name":"Turnhout","latitude":"51.32254000","longitude":"4.94471000","wikiDataId":"Q31565056","type":"administrative","placeRank":16},"Q31572147":{"countryCode":"BE","countyCode":"BE-VLG","code":"Q31572147","name":"Veurne","latitude":"51.07316000","longitude":"2.66803000","wikiDataId":"Q31572147","type":"administrative","placeRank":14},"Q31573419":{"countryCode":"BE","countyCode":"BE-VLG","code":"Q31573419","name":"Vilvoorde","latitude":"50.92814000","longitude":"4.42938000","wikiDataId":"Q31573419","type":"administrative","placeRank":14},"Q21760123":{"countryCode":"BE","countyCode":"BE-VLG","code":"Q21760123","name":"Vorselaar","latitude":"51.20243000","longitude":"4.77259000","wikiDataId":"Q21760123","type":"administrative","placeRank":14},"Q21760126":{"countryCode":"BE","countyCode":"BE-VLG","code":"Q21760126","name":"Vosselaar","latitude":"51.30856000","longitude":"4.88960000","wikiDataId":"Q21760126","type":"administrative","placeRank":14},"Q21760149":{"countryCode":"BE","countyCode":"BE-VLG","code":"Q21760149","name":"Waarschoot","latitude":"51.15250000","longitude":"3.60500000","wikiDataId":"Q21760149","type":"administrative","placeRank":16},"Q21760151":{"countryCode":"BE","countyCode":"BE-VLG","code":"Q21760151","name":"Waasmunster","latitude":"51.10572000","longitude":"4.08573000","wikiDataId":"Q21760151","type":"administrative","placeRank":14},"Q21760152":{"countryCode":"BE","countyCode":"BE-VLG","code":"Q21760152","name":"Wachtebeke","latitude":"51.16852000","longitude":"3.87183000","wikiDataId":"Q21760152","type":"administrative","placeRank":16},"Q31578256":{"countryCode":"BE","countyCode":"BE-VLG","code":"Q31578256","name":"Waregem","latitude":"50.88898000","longitude":"3.42756000","wikiDataId":"Q31578256","type":"administrative","placeRank":14},"Q21760239":{"countryCode":"BE","countyCode":"BE-VLG","code":"Q21760239","name":"Wellen","latitude":"50.84096000","longitude":"5.33867000","wikiDataId":"Q21760239","type":"administrative","placeRank":14},"Q31581536":{"countryCode":"BE","countyCode":"BE-VLG","code":"Q31581536","name":"Wemmel","latitude":"51.29830000","longitude":"3.08213000","wikiDataId":"Q31581536","type":"administrative","placeRank":16},"Q21760253":{"countryCode":"BE","countyCode":"BE-VLG","code":"Q21760253","name":"Wervik","latitude":"50.78069000","longitude":"3.03854000","wikiDataId":"Q21760253","type":"administrative","placeRank":14},"Q26235476":{"countryCode":"BE","countyCode":"BE-VLG","code":"Q26235476","name":"Westerlo","latitude":"51.09049000","longitude":"4.91544000","wikiDataId":"Q26235476","type":"administrative","placeRank":14},"Q31584348":{"countryCode":"BE","countyCode":"BE-VLG","code":"Q31584348","name":"Wetteren","latitude":"51.00526000","longitude":"3.88341000","wikiDataId":"Q31584348","type":"administrative","placeRank":14},"Q31584391":{"countryCode":"BE","countyCode":"BE-VLG","code":"Q31584391","name":"Wevelgem","latitude":"50.80000000","longitude":"3.16667000","wikiDataId":"Q31584391","type":"administrative","placeRank":14},"Q21760265":{"countryCode":"BE","countyCode":"BE-VLG","code":"Q21760265","name":"Wezembeek-Oppem","latitude":"50.83950000","longitude":"4.49427000","wikiDataId":"Q21760265","type":"administrative","placeRank":16},"Q21760268":{"countryCode":"BE","countyCode":"BE-VLG","code":"Q21760268","name":"Wichelen","latitude":"51.00526000","longitude":"3.97683000","wikiDataId":"Q21760268","type":"administrative","placeRank":14},"Q21760270":{"countryCode":"BE","countyCode":"BE-VLG","code":"Q21760270","name":"Wielsbeke","latitude":"50.90000000","longitude":"3.36667000","wikiDataId":"Q21760270","type":"administrative","placeRank":14},"Q21760276":{"countryCode":"BE","countyCode":"BE-VLG","code":"Q21760276","name":"Wijnegem","latitude":"51.22787000","longitude":"4.51895000","wikiDataId":"Q21760276","type":"administrative","placeRank":14},"Q31588325":{"countryCode":"BE","countyCode":"BE-VLG","code":"Q31588325","name":"Willebroek","latitude":"51.06041000","longitude":"4.36019000","wikiDataId":"Q31588325","type":"administrative","placeRank":14},"Q21760299":{"countryCode":"BE","countyCode":"BE-VLG","code":"Q21760299","name":"Wingene","latitude":"51.05782000","longitude":"3.27359000","wikiDataId":"Q21760299","type":"administrative","placeRank":14},"Q21760331":{"countryCode":"BE","countyCode":"BE-VLG","code":"Q21760331","name":"Wommelgem","latitude":"51.20452000","longitude":"4.52250000","wikiDataId":"Q21760331","type":"administrative","placeRank":14},"Q21760336":{"countryCode":"BE","countyCode":"BE-VLG","code":"Q21760336","name":"Wuustwezel","latitude":"51.39214000","longitude":"4.59546000","wikiDataId":"Q21760336","type":"administrative","placeRank":14},"Q21760351":{"countryCode":"BE","countyCode":"BE-VLG","code":"Q21760351","name":"Zandhoven","latitude":"51.21488000","longitude":"4.66164000","wikiDataId":"Q21760351","type":"administrative","placeRank":14},"Q31596381":{"countryCode":"BE","countyCode":"BE-VLG","code":"Q31596381","name":"Zaventem","latitude":"50.88365000","longitude":"4.47298000","wikiDataId":"Q31596381","type":"administrative","placeRank":14},"Q31596396":{"countryCode":"BE","countyCode":"BE-VLG","code":"Q31596396","name":"Zedelgem","latitude":"51.14236000","longitude":"3.13680000","wikiDataId":"Q31596396","type":"administrative","placeRank":14},"Q31596471":{"countryCode":"BE","countyCode":"BE-VLG","code":"Q31596471","name":"Zele","latitude":"51.06566000","longitude":"4.04030000","wikiDataId":"Q31596471","type":"administrative","placeRank":16},"Q21760359":{"countryCode":"BE","countyCode":"BE-VLG","code":"Q21760359","name":"Zelzate","latitude":"51.18963000","longitude":"3.80777000","wikiDataId":"Q21760359","type":"administrative","placeRank":14},"Q31596500":{"countryCode":"BE","countyCode":"BE-VLG","code":"Q31596500","name":"Zemst","latitude":"50.98318000","longitude":"4.46079000","wikiDataId":"Q31596500","type":"administrative","placeRank":14},"Q21760366":{"countryCode":"BE","countyCode":"BE-VLG","code":"Q21760366","name":"Zingem","latitude":"50.90409000","longitude":"3.65305000","wikiDataId":"Q21760366","type":"administrative","placeRank":16},"Q31596621":{"countryCode":"BE","countyCode":"BE-VLG","code":"Q31596621","name":"Zoersel","latitude":"51.11994000","longitude":"3.56496000","wikiDataId":"Q31596621","type":"administrative","placeRank":14},"Q31596651":{"countryCode":"BE","countyCode":"BE-VLG","code":"Q31596651","name":"Zonhoven","latitude":"50.99064000","longitude":"5.36819000","wikiDataId":"Q31596651","type":"administrative","placeRank":16},"Q31596665":{"countryCode":"BE","countyCode":"BE-VLG","code":"Q31596665","name":"Zonnebeke","latitude":"50.87260000","longitude":"2.98725000","wikiDataId":"Q31596665","type":"administrative","placeRank":14},"Q31596711":{"countryCode":"BE","countyCode":"BE-VLG","code":"Q31596711","name":"Zottegem","latitude":"50.86955000","longitude":"3.81052000","wikiDataId":"Q31596711","type":"administrative","placeRank":14},"Q21760368":{"countryCode":"BE","countyCode":"BE-VLG","code":"Q21760368","name":"Zoutleeuw","latitude":"50.83316000","longitude":"5.10376000","wikiDataId":"Q21760368","type":"administrative","placeRank":14},"Q31596742":{"countryCode":"BE","countyCode":"BE-VLG","code":"Q31596742","name":"Zuienkerke","latitude":"51.26511000","longitude":"3.15506000","wikiDataId":"Q31596742","type":"administrative","placeRank":14},"Q21760371":{"countryCode":"BE","countyCode":"BE-VLG","code":"Q21760371","name":"Zulte","latitude":"50.91954000","longitude":"3.44859000","wikiDataId":"Q21760371","type":"administrative","placeRank":14},"Q21760375":{"countryCode":"BE","countyCode":"BE-VLG","code":"Q21760375","name":"Zutendaal","latitude":"50.93306000","longitude":"5.57530000","wikiDataId":"Q21760375","type":"administrative","placeRank":14},"Q31596787":{"countryCode":"BE","countyCode":"BE-VLG","code":"Q31596787","name":"Zwevegem","latitude":"50.81268000","longitude":"3.33848000","wikiDataId":"Q31596787","type":"administrative","placeRank":14},"Q21756899":{"countryCode":"BE","countyCode":"BE-VLG","code":"Q21756899","name":"Zwijndrecht","latitude":"51.21979000","longitude":"4.32664000","wikiDataId":"Q21756899","type":"administrative","placeRank":16},"Q21770059":{"countryCode":"BE","countyCode":"BE-WAL","code":"Q21770059","name":"Amay","latitude":"50.54829000","longitude":"5.30974000","wikiDataId":"Q21770059","type":"administrative","placeRank":14},"Q21770061":{"countryCode":"BE","countyCode":"BE-WAL","code":"Q21770061","name":"Amel","latitude":"50.48941000","longitude":"5.09513000","wikiDataId":"Q21770061","type":"administrative","placeRank":14},"Q31466213":{"countryCode":"BE","countyCode":"BE-WAL","code":"Q31466213","name":"Anderlues","latitude":"50.40704000","longitude":"4.27136000","wikiDataId":"Q31466213","type":"administrative","placeRank":14},"Q21770072":{"countryCode":"BE","countyCode":"BE-WAL","code":"Q21770072","name":"Anhée","latitude":"50.31039000","longitude":"4.87827000","wikiDataId":"Q21770072","type":"administrative","placeRank":14},"Q31466969":{"countryCode":"BE","countyCode":"BE-WAL","code":"Q31466969","name":"Ans","latitude":"50.66230000","longitude":"5.52029000","wikiDataId":"Q31466969","type":"administrative","placeRank":14},"Q21770077":{"countryCode":"BE","countyCode":"BE-WAL","code":"Q21770077","name":"Anthisnes","latitude":"50.48323000","longitude":"5.51900000","wikiDataId":"Q21770077","type":"administrative","placeRank":14},"Q21770079":{"countryCode":"BE","countyCode":"BE-WAL","code":"Q21770079","name":"Antoing","latitude":"50.56765000","longitude":"3.44920000","wikiDataId":"Q21770079","type":"administrative","placeRank":14},"Q12359550":{"countryCode":"BE","countyCode":"BE-WAL","code":"Q12359550","name":"Aarlen","latitude":"49.68333000","longitude":"5.81667000","wikiDataId":"Q12359550","type":"administrative","placeRank":14},"Q21770103":{"countryCode":"BE","countyCode":"BE-WAL","code":"Q21770103","name":"Assesse","latitude":"50.36934000","longitude":"5.02204000","wikiDataId":"Q21770103","type":"administrative","placeRank":14},"Q31469957":{"countryCode":"BE","countyCode":"BE-WAL","code":"Q31469957","name":"Aat","latitude":"50.62937000","longitude":"3.77801000","wikiDataId":"Q31469957","type":"administrative","placeRank":14},"Q12359898":{"countryCode":"BE","countyCode":"BE-WAL","code":"Q12359898","name":"Attert","latitude":"49.75035000","longitude":"5.78634000","wikiDataId":"Q12359898","type":"administrative","placeRank":14},"Q21770109":{"countryCode":"BE","countyCode":"BE-WAL","code":"Q21770109","name":"Aubange","latitude":"49.56652000","longitude":"5.80492000","wikiDataId":"Q21770109","type":"administrative","placeRank":14},"Q21770111":{"countryCode":"BE","countyCode":"BE-WAL","code":"Q21770111","name":"Aubel","latitude":"50.70189000","longitude":"5.85812000","wikiDataId":"Q21770111","type":"administrative","placeRank":14},"Q21770138":{"countryCode":"BE","countyCode":"BE-WAL","code":"Q21770138","name":"Awans","latitude":"50.66774000","longitude":"5.46329000","wikiDataId":"Q21770138","type":"administrative","placeRank":14},"Q21770141":{"countryCode":"BE","countyCode":"BE-WAL","code":"Q21770141","name":"Aywaille","latitude":"50.47411000","longitude":"5.67684000","wikiDataId":"Q21770141","type":"administrative","placeRank":14},"Q21770157":{"countryCode":"BE","countyCode":"BE-WAL","code":"Q21770157","name":"Baelen","latitude":"50.63131000","longitude":"5.97433000","wikiDataId":"Q21770157","type":"administrative","placeRank":14},"Q21770201":{"countryCode":"BE","countyCode":"BE-WAL","code":"Q21770201","name":"Bitsingen","latitude":"50.75883000","longitude":"5.60989000","wikiDataId":"Q21770201","type":"administrative","placeRank":14},"Q25634689":{"countryCode":"BE","countyCode":"BE-WAL","code":"Q25634689","name":"Bastenaken","latitude":"50.00347000","longitude":"5.71844000","wikiDataId":"Q25634689","type":"administrative","placeRank":14},"Q21770217":{"countryCode":"BE","countyCode":"BE-WAL","code":"Q21770217","name":"Beaumont","latitude":"50.23699000","longitude":"4.23926000","wikiDataId":"Q21770217","type":"administrative","placeRank":14},"Q10909383":{"countryCode":"BE","countyCode":"BE-WAL","code":"Q10909383","name":"Beauraing","latitude":"50.11042000","longitude":"4.95554000","wikiDataId":"Q10909383","type":"administrative","placeRank":14},"Q31494139":{"countryCode":"BE","countyCode":"BE-WAL","code":"Q31494139","name":"Bevekom","latitude":"50.78195000","longitude":"4.77180000","wikiDataId":"Q31494139","type":"administrative","placeRank":14},"Q21770255":{"countryCode":"BE","countyCode":"BE-WAL","code":"Q21770255","name":"Belœil","latitude":"50.55047000","longitude":"3.73484000","wikiDataId":"Q21770255","type":"administrative","placeRank":14},"Q21770277":{"countryCode":"BE","countyCode":"BE-WAL","code":"Q21770277","name":"Berloz","latitude":"50.69829000","longitude":"5.21236000","wikiDataId":"Q21770277","type":"administrative","placeRank":14},"Q21770281":{"countryCode":"BE","countyCode":"BE-WAL","code":"Q21770281","name":"Bernissart","latitude":"50.47460000","longitude":"3.64961000","wikiDataId":"Q21770281","type":"administrative","placeRank":14},"Q31497290":{"countryCode":"BE","countyCode":"BE-WAL","code":"Q31497290","name":"Bertogne","latitude":"50.08364000","longitude":"5.66689000","wikiDataId":"Q31497290","type":"administrative","placeRank":16},"Q21770292":{"countryCode":"BE","countyCode":"BE-WAL","code":"Q21770292","name":"Bertrix","latitude":"49.85596000","longitude":"5.25539000","wikiDataId":"Q21770292","type":"administrative","placeRank":14},"Q21770327":{"countryCode":"BE","countyCode":"BE-WAL","code":"Q21770327","name":"Bièvre","latitude":"49.94085000","longitude":"5.01591000","wikiDataId":"Q21770327","type":"administrative","placeRank":14},"Q31502281":{"countryCode":"BE","countyCode":"BE-WAL","code":"Q31502281","name":"Binche","latitude":"50.41155000","longitude":"4.16469000","wikiDataId":"Q31502281","type":"administrative","placeRank":14},"Q21770345":{"countryCode":"BE","countyCode":"BE-WAL","code":"Q21770345","name":"Blégny","latitude":"50.67255000","longitude":"5.72508000","wikiDataId":"Q21770345","type":"administrative","placeRank":14},"Q12360419":{"countryCode":"BE","countyCode":"BE-WAL","code":"Q12360419","name":"Bouillon","latitude":"49.79324000","longitude":"5.06703000","wikiDataId":"Q12360419","type":"administrative","placeRank":14},"Q31510518":{"countryCode":"BE","countyCode":"BE-WAL","code":"Q31510518","name":"Boussu","latitude":"50.43417000","longitude":"3.79440000","wikiDataId":"Q31510518","type":"administrative","placeRank":14},"Q31511377":{"countryCode":"BE","countyCode":"BE-WAL","code":"Q31511377","name":"Eigenbrakel","latitude":"50.68363000","longitude":"4.36784000","wikiDataId":"Q31511377","type":"administrative","placeRank":14},"Q31511393":{"countryCode":"BE","countyCode":"BE-WAL","code":"Q31511393","name":"Kasteelbrakel","latitude":"50.67990000","longitude":"4.27385000","wikiDataId":"Q31511393","type":"administrative","placeRank":14},"Q31511408":{"countryCode":"BE","countyCode":"BE-WAL","code":"Q31511408","name":"'s-Gravenbrakel","latitude":"50.60979000","longitude":"4.14658000","wikiDataId":"Q31511408","type":"administrative","placeRank":14},"Q21770459":{"countryCode":"BE","countyCode":"BE-WAL","code":"Q21770459","name":"Braives","latitude":"50.61745000","longitude":"5.13302000","wikiDataId":"Q21770459","type":"administrative","placeRank":14},"Q21770494":{"countryCode":"BE","countyCode":"BE-WAL","code":"Q21770494","name":"Brugelette","latitude":"50.59577000","longitude":"3.85363000","wikiDataId":"Q21770494","type":"administrative","placeRank":14},"Q21770526":{"countryCode":"BE","countyCode":"BE-WAL","code":"Q21770526","name":"Büllingen","latitude":"50.40731000","longitude":"6.25749000","wikiDataId":"Q21770526","type":"administrative","placeRank":14},"Q21770530":{"countryCode":"BE","countyCode":"BE-WAL","code":"Q21770530","name":"Burdinne","latitude":"50.58454000","longitude":"5.07663000","wikiDataId":"Q21770530","type":"administrative","placeRank":14},"Q21770544":{"countryCode":"BE","countyCode":"BE-WAL","code":"Q21770544","name":"Bütgenbach","latitude":"50.42689000","longitude":"6.20504000","wikiDataId":"Q21770544","type":"administrative","placeRank":14},"Q21770563":{"countryCode":"BE","countyCode":"BE-WAL","code":"Q21770563","name":"Celles","latitude":"50.71229000","longitude":"3.45733000","wikiDataId":"Q21770563","type":"administrative","placeRank":14},"Q21770566":{"countryCode":"BE","countyCode":"BE-WAL","code":"Q21770566","name":"Cerfontaine","latitude":"50.17047000","longitude":"4.41028000","wikiDataId":"Q21770566","type":"administrative","placeRank":14},"Q21770582":{"countryCode":"BE","countyCode":"BE-WAL","code":"Q21770582","name":"Chapelle-lez-Herlaimont","latitude":"50.60857000","longitude":"4.64198000","wikiDataId":"Q21770582","type":"administrative","placeRank":14},"Q31544320":{"countryCode":"BE","countyCode":"BE-WAL","code":"Q31544320","name":"Châtelet","latitude":"50.40338000","longitude":"4.52826000","wikiDataId":"Q31544320","type":"administrative","placeRank":14},"Q31541936":{"countryCode":"BE","countyCode":"BE-WAL","code":"Q31541936","name":"Chaudfontaine","latitude":"50.58280000","longitude":"5.63410000","wikiDataId":"Q31541936","type":"administrative","placeRank":14},"Q31541958":{"countryCode":"BE","countyCode":"BE-WAL","code":"Q31541958","name":"Chaumont-Gistoux","latitude":"50.67753000","longitude":"4.72120000","wikiDataId":"Q31541958","type":"administrative","placeRank":14},"Q21768502":{"countryCode":"BE","countyCode":"BE-WAL","code":"Q21768502","name":"Chièvres","latitude":"50.58787000","longitude":"3.80711000","wikiDataId":"Q21768502","type":"administrative","placeRank":14},"Q31543353":{"countryCode":"BE","countyCode":"BE-WAL","code":"Q31543353","name":"Chimay","latitude":"50.04856000","longitude":"4.31712000","wikiDataId":"Q31543353","type":"administrative","placeRank":14},"Q21768505":{"countryCode":"BE","countyCode":"BE-WAL","code":"Q21768505","name":"Chiny","latitude":"49.73833000","longitude":"5.34104000","wikiDataId":"Q21768505","type":"administrative","placeRank":14},"Q21768514":{"countryCode":"BE","countyCode":"BE-WAL","code":"Q21768514","name":"Ciney","latitude":"50.29449000","longitude":"5.10015000","wikiDataId":"Q21768514","type":"administrative","placeRank":14},"Q21768522":{"countryCode":"BE","countyCode":"BE-WAL","code":"Q21768522","name":"Clavier","latitude":"50.40069000","longitude":"5.35154000","wikiDataId":"Q21768522","type":"administrative","placeRank":14},"Q31549500":{"countryCode":"BE","countyCode":"BE-WAL","code":"Q31549500","name":"Colfontaine","latitude":"50.41410000","longitude":"3.85569000","wikiDataId":"Q31549500","type":"administrative","placeRank":14},"Q21768534":{"countryCode":"BE","countyCode":"BE-WAL","code":"Q21768534","name":"Comblain-au-Pont","latitude":"50.47488000","longitude":"5.57711000","wikiDataId":"Q21768534","type":"administrative","placeRank":14},"Q31554196":{"countryCode":"BE","countyCode":"BE-WAL","code":"Q31554196","name":"Courcelles","latitude":"50.46379000","longitude":"4.37470000","wikiDataId":"Q31554196","type":"administrative","placeRank":14},"Q31554212":{"countryCode":"BE","countyCode":"BE-WAL","code":"Q31554212","name":"Court-Saint-Étienne","latitude":"50.63378000","longitude":"4.56851000","wikiDataId":"Q31554212","type":"administrative","placeRank":16},"Q21768574":{"countryCode":"BE","countyCode":"BE-WAL","code":"Q21768574","name":"Couvin","latitude":"50.05284000","longitude":"4.49495000","wikiDataId":"Q21768574","type":"administrative","placeRank":14},"Q21768581":{"countryCode":"BE","countyCode":"BE-WAL","code":"Q21768581","name":"Crisnée","latitude":"50.71703000","longitude":"5.39802000","wikiDataId":"Q21768581","type":"administrative","placeRank":14},"Q21768594":{"countryCode":"BE","countyCode":"BE-WAL","code":"Q21768594","name":"Dalhem","latitude":"50.71315000","longitude":"5.72774000","wikiDataId":"Q21768594","type":"administrative","placeRank":14},"Q21768605":{"countryCode":"BE","countyCode":"BE-WAL","code":"Q21768605","name":"Daverdisse","latitude":"50.02161000","longitude":"5.11811000","wikiDataId":"Q21768605","type":"administrative","placeRank":14},"Q31567774":{"countryCode":"BE","countyCode":"BE-WAL","code":"Q31567774","name":"Dinant","latitude":"50.25807000","longitude":"4.91166000","wikiDataId":"Q31567774","type":"administrative","placeRank":14},"Q21768672":{"countryCode":"BE","countyCode":"BE-WAL","code":"Q21768672","name":"Dison","latitude":"50.61004000","longitude":"5.85340000","wikiDataId":"Q21768672","type":"administrative","placeRank":14},"Q22088310":{"countryCode":"BE","countyCode":"BE-WAL","code":"Q22088310","name":"Doische","latitude":"50.13356000","longitude":"4.73545000","wikiDataId":"Q22088310","type":"administrative","placeRank":14},"Q21768678":{"countryCode":"BE","countyCode":"BE-WAL","code":"Q21768678","name":"Donceel","latitude":"50.64827000","longitude":"5.32000000","wikiDataId":"Q21768678","type":"administrative","placeRank":14},"Q21768698":{"countryCode":"BE","countyCode":"BE-WAL","code":"Q21768698","name":"Dour","latitude":"50.39583000","longitude":"3.77792000","wikiDataId":"Q21768698","type":"administrative","placeRank":14},"Q21768712":{"countryCode":"BE","countyCode":"BE-WAL","code":"Q21768712","name":"Durbuy","latitude":"50.35291000","longitude":"5.45631000","wikiDataId":"Q21768712","type":"administrative","placeRank":14},"Q1910691":{"countryCode":"BE","countyCode":"BE-WAL","code":"Q1910691","name":"Écaussinnes-d'Enghien","latitude":"50.56822000","longitude":"4.16580000","wikiDataId":"Q1910691","type":"administrative","placeRank":16},"Q21768726":{"countryCode":"BE","countyCode":"BE-WAL","code":"Q21768726","name":"Éghezée","latitude":"50.59076000","longitude":"4.91175000","wikiDataId":"Q21768726","type":"administrative","placeRank":14},"Q21768742":{"countryCode":"BE","countyCode":"BE-WAL","code":"Q21768742","name":"Elzele","latitude":"50.73512000","longitude":"3.67985000","wikiDataId":"Q21768742","type":"administrative","placeRank":14},"Q31578134":{"countryCode":"BE","countyCode":"BE-WAL","code":"Q31578134","name":"Edingen","latitude":"50.68373000","longitude":"4.03284000","wikiDataId":"Q31578134","type":"administrative","placeRank":14},"Q21768761":{"countryCode":"BE","countyCode":"BE-WAL","code":"Q21768761","name":"Engis","latitude":"50.58156000","longitude":"5.39916000","wikiDataId":"Q21768761","type":"administrative","placeRank":14},"Q21768770":{"countryCode":"BE","countyCode":"BE-WAL","code":"Q21768770","name":"Érezée","latitude":"50.29292000","longitude":"5.55815000","wikiDataId":"Q21768770","type":"administrative","placeRank":14},"Q21768777":{"countryCode":"BE","countyCode":"BE-WAL","code":"Q21768777","name":"Erquelinnes","latitude":"50.30688000","longitude":"4.11129000","wikiDataId":"Q21768777","type":"administrative","placeRank":14},"Q12362368":{"countryCode":"BE","countyCode":"BE-WAL","code":"Q12362368","name":"Esneux","latitude":"50.53596000","longitude":"5.56775000","wikiDataId":"Q12362368","type":"administrative","placeRank":14},"Q21768790":{"countryCode":"BE","countyCode":"BE-WAL","code":"Q21768790","name":"Estaimpuis","latitude":"50.41016000","longitude":"4.10477000","wikiDataId":"Q21768790","type":"administrative","placeRank":14},"Q21768795":{"countryCode":"BE","countyCode":"BE-WAL","code":"Q21768795","name":"Étalle","latitude":"49.67385000","longitude":"5.60019000","wikiDataId":"Q21768795","type":"administrative","placeRank":14},"Q31579678":{"countryCode":"BE","countyCode":"BE-WAL","code":"Q31579678","name":"Eupen","latitude":"50.62790000","longitude":"6.03647000","wikiDataId":"Q31579678","type":"administrative","placeRank":14},"Q21768817":{"countryCode":"BE","countyCode":"BE-WAL","code":"Q21768817","name":"Faimes","latitude":"50.66252000","longitude":"5.26005000","wikiDataId":"Q21768817","type":"administrative","placeRank":14},"Q21768828":{"countryCode":"BE","countyCode":"BE-WAL","code":"Q21768828","name":"Farciennes","latitude":"50.43006000","longitude":"4.54152000","wikiDataId":"Q21768828","type":"administrative","placeRank":14},"Q21768831":{"countryCode":"BE","countyCode":"BE-WAL","code":"Q21768831","name":"Fauvillers","latitude":"49.85116000","longitude":"5.66405000","wikiDataId":"Q21768831","type":"administrative","placeRank":14},"Q21768849":{"countryCode":"BE","countyCode":"BE-WAL","code":"Q21768849","name":"Ferrières","latitude":"50.40157000","longitude":"5.61092000","wikiDataId":"Q21768849","type":"administrative","placeRank":14},"Q21768852":{"countryCode":"BE","countyCode":"BE-WAL","code":"Q21768852","name":"Fexhe-le-Haut-Clocher","latitude":"50.66540000","longitude":"5.39978000","wikiDataId":"Q21768852","type":"administrative","placeRank":14},"Q2356647":{"countryCode":"BE","countyCode":"BE-WAL","code":"Q2356647","name":"Flémalle-Haute","latitude":"50.59994000","longitude":"5.44471000","wikiDataId":"Q2356647","type":"administrative","placeRank":16},"Q21768865":{"countryCode":"BE","countyCode":"BE-WAL","code":"Q21768865","name":"Fléron","latitude":"50.61516000","longitude":"5.68062000","wikiDataId":"Q21768865","type":"administrative","placeRank":14},"Q31583129":{"countryCode":"BE","countyCode":"BE-WAL","code":"Q31583129","name":"Fleurus","latitude":"50.48351000","longitude":"4.55006000","wikiDataId":"Q31583129","type":"administrative","placeRank":14},"Q21768868":{"countryCode":"BE","countyCode":"BE-WAL","code":"Q21768868","name":"Vloesberg","latitude":"50.73733000","longitude":"3.73876000","wikiDataId":"Q21768868","type":"administrative","placeRank":16},"Q21768870":{"countryCode":"BE","countyCode":"BE-WAL","code":"Q21768870","name":"Floreffe","latitude":"50.43452000","longitude":"4.75960000","wikiDataId":"Q21768870","type":"administrative","placeRank":14},"Q21768873":{"countryCode":"BE","countyCode":"BE-WAL","code":"Q21768873","name":"Florennes","latitude":"50.25127000","longitude":"4.60636000","wikiDataId":"Q21768873","type":"administrative","placeRank":14},"Q13212919":{"countryCode":"BE","countyCode":"BE-WAL","code":"Q13212919","name":"Florenville","latitude":"49.69983000","longitude":"5.30740000","wikiDataId":"Q13212919","type":"administrative","placeRank":14},"Q1866454":{"countryCode":"BE","countyCode":"BE-WAL","code":"Q1866454","name":"Forville","latitude":"50.57424000","longitude":"4.99861000","wikiDataId":"Q1866454","type":"administrative","placeRank":16},"Q720478":{"countryCode":"BE","countyCode":"BE-WAL","code":"Q720478","name":"Fosses-la-Ville","latitude":"50.40578000","longitude":"3.89603000","wikiDataId":"Q720478","type":"administrative","placeRank":14},"Q3086686":{"countryCode":"BE","countyCode":"BE-WAL","code":"Q3086686","name":"Frasnes-lez-Buissenal","latitude":"50.66783000","longitude":"3.62047000","wikiDataId":"Q3086686","type":"administrative","placeRank":16},"Q21768962":{"countryCode":"BE","countyCode":"BE-WAL","code":"Q21768962","name":"Froidchapelle","latitude":"50.15106000","longitude":"4.32742000","wikiDataId":"Q21768962","type":"administrative","placeRank":14},"Q21768986":{"countryCode":"BE","countyCode":"BE-WAL","code":"Q21768986","name":"Gedinne","latitude":"49.98037000","longitude":"4.93674000","wikiDataId":"Q21768986","type":"administrative","placeRank":14},"Q21768987":{"countryCode":"BE","countyCode":"BE-WAL","code":"Q21768987","name":"Geer","latitude":"50.66990000","longitude":"5.17364000","wikiDataId":"Q21768987","type":"administrative","placeRank":14},"Q31589725":{"countryCode":"BE","countyCode":"BE-WAL","code":"Q31589725","name":"Gembloers","latitude":"50.56149000","longitude":"4.69889000","wikiDataId":"Q31589725","type":"administrative","placeRank":14},"Q31589760":{"countryCode":"BE","countyCode":"BE-WAL","code":"Q31589760","name":"Genepiën","latitude":"50.61173000","longitude":"4.45152000","wikiDataId":"Q31589760","type":"administrative","placeRank":14},"Q21769026":{"countryCode":"BE","countyCode":"BE-WAL","code":"Q21769026","name":"Gerpinnes","latitude":"50.33789000","longitude":"4.52731000","wikiDataId":"Q21769026","type":"administrative","placeRank":14},"Q21769032":{"countryCode":"BE","countyCode":"BE-WAL","code":"Q21769032","name":"Gesves","latitude":"50.40146000","longitude":"5.07457000","wikiDataId":"Q21769032","type":"administrative","placeRank":14},"Q21769078":{"countryCode":"BE","countyCode":"BE-WAL","code":"Q21769078","name":"Gouvy","latitude":"50.18600000","longitude":"5.93917000","wikiDataId":"Q21769078","type":"administrative","placeRank":14},"Q13212992":{"countryCode":"BE","countyCode":"BE-WAL","code":"Q13212992","name":"Graven","latitude":"50.73901000","longitude":"4.69829000","wikiDataId":"Q13212992","type":"administrative","placeRank":14},"Q21767669":{"countryCode":"BE","countyCode":"BE-WAL","code":"Q21767669","name":"Hamoir","latitude":"50.42675000","longitude":"5.53304000","wikiDataId":"Q21767669","type":"administrative","placeRank":14},"Q21767671":{"countryCode":"BE","countyCode":"BE-WAL","code":"Q21767671","name":"Hamois","latitude":"50.34020000","longitude":"5.15619000","wikiDataId":"Q21767671","type":"administrative","placeRank":14},"Q683141":{"countryCode":"BE","countyCode":"BE-WAL","code":"Q683141","name":"Hannuit","latitude":"50.67142000","longitude":"5.07898000","wikiDataId":"Q683141","type":"administrative","placeRank":14},"Q2186694":{"countryCode":"BE","countyCode":"BE-WAL","code":"Q2186694","name":"Hastière-Lavaux","latitude":"50.21849000","longitude":"4.82446000","wikiDataId":"Q2186694","type":"administrative","placeRank":16},"Q21767720":{"countryCode":"BE","countyCode":"BE-WAL","code":"Q21767720","name":"Havelange","latitude":"50.38931000","longitude":"5.23816000","wikiDataId":"Q21767720","type":"administrative","placeRank":14},"Q21767768":{"countryCode":"BE","countyCode":"BE-WAL","code":"Q21767768","name":"Hensies","latitude":"49.78086000","longitude":"5.23580000","wikiDataId":"Q21767768","type":"administrative","placeRank":14},"Q21767794":{"countryCode":"BE","countyCode":"BE-WAL","code":"Q21767794","name":"Héron","latitude":"50.54731000","longitude":"5.09774000","wikiDataId":"Q21767794","type":"administrative","placeRank":14},"Q21767807":{"countryCode":"BE","countyCode":"BE-WAL","code":"Q21767807","name":"Herve","latitude":"50.64083000","longitude":"5.79353000","wikiDataId":"Q21767807","type":"administrative","placeRank":14},"Q21767891":{"countryCode":"BE","countyCode":"BE-WAL","code":"Q21767891","name":"Hotton","latitude":"50.26742000","longitude":"5.44609000","wikiDataId":"Q21767891","type":"administrative","placeRank":14},"Q21767894":{"countryCode":"BE","countyCode":"BE-WAL","code":"Q21767894","name":"Houffalize","latitude":"50.13235000","longitude":"5.78962000","wikiDataId":"Q21767894","type":"administrative","placeRank":14},"Q21767911":{"countryCode":"BE","countyCode":"BE-WAL","code":"Q21767911","name":"Houyet","latitude":"50.18619000","longitude":"5.00762000","wikiDataId":"Q21767911","type":"administrative","placeRank":14},"Q18542624":{"countryCode":"BE","countyCode":"BE-WAL","code":"Q18542624","name":"Hoei","latitude":"50.51894000","longitude":"5.23284000","wikiDataId":"Q18542624","type":"administrative","placeRank":14},"Q31824037":{"countryCode":"BE","countyCode":"BE-WAL","code":"Q31824037","name":"Incourt","latitude":"50.69151000","longitude":"4.79816000","wikiDataId":"Q31824037","type":"administrative","placeRank":14},"Q21767953":{"countryCode":"BE","countyCode":"BE-WAL","code":"Q21767953","name":"Itter","latitude":"50.64396000","longitude":"4.26476000","wikiDataId":"Q21767953","type":"administrative","placeRank":14},"Q21767964":{"countryCode":"BE","countyCode":"BE-WAL","code":"Q21767964","name":"Jalhay","latitude":"50.55876000","longitude":"5.96764000","wikiDataId":"Q21767964","type":"administrative","placeRank":14},"Q31824038":{"countryCode":"BE","countyCode":"BE-WAL","code":"Q31824038","name":"Geldenaken","latitude":"50.72357000","longitude":"4.86914000","wikiDataId":"Q31824038","type":"administrative","placeRank":14},"Q21767127":{"countryCode":"BE","countyCode":"BE-WAL","code":"Q21767127","name":"Juprelle","latitude":"50.70760000","longitude":"5.53127000","wikiDataId":"Q21767127","type":"administrative","placeRank":14},"Q21767129":{"countryCode":"BE","countyCode":"BE-WAL","code":"Q21767129","name":"Jurbeke","latitude":"50.53100000","longitude":"3.90942000","wikiDataId":"Q21767129","type":"administrative","placeRank":14},"Q16216319":{"countryCode":"BE","countyCode":"BE-WAL","code":"Q16216319","name":"Kelmis","latitude":"50.71809000","longitude":"6.01107000","wikiDataId":"Q16216319","type":"administrative","placeRank":14},"Q31824072":{"countryCode":"BE","countyCode":"BE-WAL","code":"Q31824072","name":"Terhulpen","latitude":"50.73091000","longitude":"4.48577000","wikiDataId":"Q31824072","type":"administrative","placeRank":14},"Q21921673":{"countryCode":"BE","countyCode":"BE-WAL","code":"Q21921673","name":"La Louvière","latitude":"50.48657000","longitude":"4.18785000","wikiDataId":"Q21921673","type":"administrative","placeRank":14},"Q21765473":{"countryCode":"BE","countyCode":"BE-WAL","code":"Q21765473","name":"La Roche-en-Ardenne","latitude":"50.18361000","longitude":"5.57547000","wikiDataId":"Q21765473","type":"administrative","placeRank":14},"Q21765515":{"countryCode":"BE","countyCode":"BE-WAL","code":"Q21765515","name":"Léglise","latitude":"49.79985000","longitude":"5.53652000","wikiDataId":"Q21765515","type":"administrative","placeRank":14},"Q21765542":{"countryCode":"BE","countyCode":"BE-WAL","code":"Q21765542","name":"Lens","latitude":"50.55696000","longitude":"3.89946000","wikiDataId":"Q21765542","type":"administrative","placeRank":14},"Q31824077":{"countryCode":"BE","countyCode":"BE-WAL","code":"Q31824077","name":"Lessen","latitude":"50.71104000","longitude":"3.83579000","wikiDataId":"Q31824077","type":"administrative","placeRank":14},"Q21765567":{"countryCode":"BE","countyCode":"BE-WAL","code":"Q21765567","name":"Libin","latitude":"49.98107000","longitude":"5.25612000","wikiDataId":"Q21765567","type":"administrative","placeRank":14},"Q21765575":{"countryCode":"BE","countyCode":"BE-WAL","code":"Q21765575","name":"Lierneux","latitude":"50.28477000","longitude":"5.79236000","wikiDataId":"Q21765575","type":"administrative","placeRank":14},"Q21765585":{"countryCode":"BE","countyCode":"BE-WAL","code":"Q21765585","name":"Limburg","latitude":"50.61222000","longitude":"5.94120000","wikiDataId":"Q21765585","type":"administrative","placeRank":14},"Q21765588":{"countryCode":"BE","countyCode":"BE-WAL","code":"Q21765588","name":"Lijsem","latitude":"50.71222000","longitude":"5.03654000","wikiDataId":"Q21765588","type":"administrative","placeRank":14},"Q21765602":{"countryCode":"BE","countyCode":"BE-WAL","code":"Q21765602","name":"Lobbes","latitude":"50.35258000","longitude":"4.26716000","wikiDataId":"Q21765602","type":"administrative","placeRank":14},"Q21765621":{"countryCode":"BE","countyCode":"BE-WAL","code":"Q21765621","name":"Lontzen","latitude":"50.68126000","longitude":"6.00712000","wikiDataId":"Q21765621","type":"administrative","placeRank":14},"Q665868":{"countryCode":"BE","countyCode":"BE-WAL","code":"Q665868","name":"Louvain-la-Neuve","latitude":"50.66829000","longitude":"4.61443000","wikiDataId":"Q665868","type":"administrative","placeRank":16},"Q31824088":{"countryCode":"BE","countyCode":"BE-WAL","code":"Q31824088","name":"Malmedy","latitude":"50.42686000","longitude":"6.02794000","wikiDataId":"Q31824088","type":"administrative","placeRank":14},"Q31824089":{"countryCode":"BE","countyCode":"BE-WAL","code":"Q31824089","name":"Manage","latitude":"50.50312000","longitude":"4.23589000","wikiDataId":"Q31824089","type":"administrative","placeRank":14},"Q21765693":{"countryCode":"BE","countyCode":"BE-WAL","code":"Q21765693","name":"Manhay","latitude":"50.29219000","longitude":"5.67562000","wikiDataId":"Q21765693","type":"administrative","placeRank":14},"Q21765709":{"countryCode":"BE","countyCode":"BE-WAL","code":"Q21765709","name":"Marche-en-Famenne","latitude":"50.22678000","longitude":"5.34416000","wikiDataId":"Q21765709","type":"administrative","placeRank":14},"Q21765713":{"countryCode":"BE","countyCode":"BE-WAL","code":"Q21765713","name":"Marchin","latitude":"50.46707000","longitude":"5.24280000","wikiDataId":"Q21765713","type":"administrative","placeRank":14},"Q21765733":{"countryCode":"BE","countyCode":"BE-WAL","code":"Q21765733","name":"Martelange","latitude":"49.83195000","longitude":"5.73655000","wikiDataId":"Q21765733","type":"administrative","placeRank":14},"Q21765765":{"countryCode":"BE","countyCode":"BE-WAL","code":"Q21765765","name":"Meix-devant-Virton","latitude":"49.60581000","longitude":"5.48045000","wikiDataId":"Q21765765","type":"administrative","placeRank":14},"Q21765785":{"countryCode":"BE","countyCode":"BE-WAL","code":"Q21765785","name":"Merbes-le-Château","latitude":"50.32449000","longitude":"4.16489000","wikiDataId":"Q21765785","type":"administrative","placeRank":14},"Q21765791":{"countryCode":"BE","countyCode":"BE-WAL","code":"Q21765791","name":"Messancy","latitude":"49.59201000","longitude":"5.81879000","wikiDataId":"Q21765791","type":"administrative","placeRank":14},"Q21765794":{"countryCode":"BE","countyCode":"BE-WAL","code":"Q21765794","name":"Mettet","latitude":"50.32119000","longitude":"4.66232000","wikiDataId":"Q21765794","type":"administrative","placeRank":14},"Q21765828":{"countryCode":"BE","countyCode":"BE-WAL","code":"Q21765828","name":"Modave","latitude":"50.44614000","longitude":"5.29532000","wikiDataId":"Q21765828","type":"administrative","placeRank":14},"Q21765930":{"countryCode":"BE","countyCode":"BE-WAL","code":"Q21765930","name":"Momignies","latitude":"50.61667000","longitude":"5.46667000","wikiDataId":"Q21765930","type":"administrative","placeRank":14},"Q31824108":{"countryCode":"BE","countyCode":"BE-WAL","code":"Q31824108","name":"Mont-Saint-Guibert","latitude":"50.63427000","longitude":"4.61061000","wikiDataId":"Q31824108","type":"administrative","placeRank":14},"Q2358095":{"countryCode":"BE","countyCode":"BE-WAL","code":"Q2358095","name":"Morlanwelz-Mariemont","latitude":"50.45502000","longitude":"4.24519000","wikiDataId":"Q2358095","type":"administrative","placeRank":16},"Q37736670":{"countryCode":"BE","countyCode":"BE-WAL","code":"Q37736670","name":"Moeskroen","latitude":"50.74497000","longitude":"3.20639000","wikiDataId":"Q37736670","type":"administrative","placeRank":14},"Q21766012":{"countryCode":"BE","countyCode":"BE-WAL","code":"Q21766012","name":"Musson","latitude":"49.55835000","longitude":"5.70525000","wikiDataId":"Q21766012","type":"administrative","placeRank":14},"Q51389725":{"countryCode":"BE","countyCode":"BE-WAL","code":"Q51389725","name":"Namen","latitude":"50.46690000","longitude":"4.86746000","wikiDataId":"Q51389725","type":"administrative","placeRank":14},"Q21766022":{"countryCode":"BE","countyCode":"BE-WAL","code":"Q21766022","name":"Nandrin","latitude":"50.50675000","longitude":"5.41905000","wikiDataId":"Q21766022","type":"administrative","placeRank":14},"Q20621818":{"countryCode":"BE","countyCode":"BE-WAL","code":"Q20621818","name":"Nassogne","latitude":"50.12849000","longitude":"5.34274000","wikiDataId":"Q20621818","type":"administrative","placeRank":14},"Q21766053":{"countryCode":"BE","countyCode":"BE-WAL","code":"Q21766053","name":"Neufchâteau","latitude":"49.84074000","longitude":"5.43535000","wikiDataId":"Q21766053","type":"administrative","placeRank":14},"Q31824124":{"countryCode":"BE","countyCode":"BE-WAL","code":"Q31824124","name":"Nijvel","latitude":"50.59833000","longitude":"4.32848000","wikiDataId":"Q31824124","type":"administrative","placeRank":14},"Q3247707":{"countryCode":"BE","countyCode":"BE-WAL","code":"Q3247707","name":"Noville-les-Bois","latitude":"50.55702000","longitude":"4.98466000","wikiDataId":"Q3247707","type":"administrative","placeRank":16},"Q13216634":{"countryCode":"BE","countyCode":"BE-WAL","code":"Q13216634","name":"Ohey","latitude":"50.43570000","longitude":"5.12375000","wikiDataId":"Q13216634","type":"administrative","placeRank":14},"Q21766135":{"countryCode":"BE","countyCode":"BE-WAL","code":"Q21766135","name":"Olne","latitude":"50.58994000","longitude":"5.74662000","wikiDataId":"Q21766135","type":"administrative","placeRank":14},"Q21766148":{"countryCode":"BE","countyCode":"BE-WAL","code":"Q21766148","name":"Onhaye","latitude":"50.24148000","longitude":"4.84069000","wikiDataId":"Q21766148","type":"administrative","placeRank":14},"Q21764245":{"countryCode":"BE","countyCode":"BE-WAL","code":"Q21764245","name":"Oerle","latitude":"50.71749000","longitude":"5.34880000","wikiDataId":"Q21764245","type":"administrative","placeRank":14},"Q3357775":{"countryCode":"BE","countyCode":"BE-WAL","code":"Q3357775","name":"Ottignies","latitude":"50.66535000","longitude":"4.56679000","wikiDataId":"Q3357775","type":"administrative","placeRank":16},"Q21764278":{"countryCode":"BE","countyCode":"BE-WAL","code":"Q21764278","name":"Ouffet","latitude":"50.43870000","longitude":"5.46570000","wikiDataId":"Q21764278","type":"administrative","placeRank":14},"Q31824127":{"countryCode":"BE","countyCode":"BE-WAL","code":"Q31824127","name":"Oupeye","latitude":"50.71184000","longitude":"5.64680000","wikiDataId":"Q31824127","type":"administrative","placeRank":14},"Q12371903":{"countryCode":"BE","countyCode":"BE-WAL","code":"Q12371903","name":"Paliseul","latitude":"49.90395000","longitude":"5.13537000","wikiDataId":"Q12371903","type":"administrative","placeRank":14},"Q21764309":{"countryCode":"BE","countyCode":"BE-WAL","code":"Q21764309","name":"Pecq","latitude":"50.68619000","longitude":"3.33789000","wikiDataId":"Q21764309","type":"administrative","placeRank":14},"Q21764321":{"countryCode":"BE","countyCode":"BE-WAL","code":"Q21764321","name":"Pepinster","latitude":"50.57375000","longitude":"5.80490000","wikiDataId":"Q21764321","type":"administrative","placeRank":14},"Q21764327":{"countryCode":"BE","countyCode":"BE-WAL","code":"Q21764327","name":"Péruwelz","latitude":"50.50819000","longitude":"3.59373000","wikiDataId":"Q21764327","type":"administrative","placeRank":14},"Q31466803":{"countryCode":"BE","countyCode":"BE-WAL","code":"Q31466803","name":"Perwijs","latitude":"50.62426000","longitude":"4.81354000","wikiDataId":"Q31466803","type":"administrative","placeRank":14},"Q21764350":{"countryCode":"BE","countyCode":"BE-WAL","code":"Q21764350","name":"Philippeville","latitude":"50.19612000","longitude":"4.54374000","wikiDataId":"Q21764350","type":"administrative","placeRank":14},"Q21764380":{"countryCode":"BE","countyCode":"BE-WAL","code":"Q21764380","name":"Plombières","latitude":"50.73656000","longitude":"5.95922000","wikiDataId":"Q21764380","type":"administrative","placeRank":14},"Q21764393":{"countryCode":"BE","countyCode":"BE-WAL","code":"Q21764393","name":"Pont-à-Celles","latitude":"50.50518000","longitude":"4.36887000","wikiDataId":"Q21764393","type":"administrative","placeRank":14},"Q21764434":{"countryCode":"BE","countyCode":"BE-WAL","code":"Q21764434","name":"Profondeville","latitude":"50.37581000","longitude":"4.86506000","wikiDataId":"Q21764434","type":"administrative","placeRank":14},"Q31481282":{"countryCode":"BE","countyCode":"BE-WAL","code":"Q31481282","name":"Quaregnon","latitude":"50.44067000","longitude":"3.86530000","wikiDataId":"Q31481282","type":"administrative","placeRank":16},"Q21764452":{"countryCode":"BE","countyCode":"BE-WAL","code":"Q21764452","name":"Quiévrain","latitude":"50.40737000","longitude":"3.68351000","wikiDataId":"Q21764452","type":"administrative","placeRank":14},"Q21764462":{"countryCode":"BE","countyCode":"BE-WAL","code":"Q21764462","name":"Raeren","latitude":"50.63395000","longitude":"4.90119000","wikiDataId":"Q21764462","type":"administrative","placeRank":14},"Q21764500":{"countryCode":"BE","countyCode":"BE-WAL","code":"Q21764500","name":"Remicourt","latitude":"50.68069000","longitude":"5.32785000","wikiDataId":"Q21764500","type":"administrative","placeRank":14},"Q21764509":{"countryCode":"BE","countyCode":"BE-WAL","code":"Q21764509","name":"Rendeux","latitude":"50.23423000","longitude":"5.50414000","wikiDataId":"Q21764509","type":"administrative","placeRank":14},"Q31490281":{"countryCode":"BE","countyCode":"BE-WAL","code":"Q31490281","name":"Rixensart","latitude":"50.71229000","longitude":"4.52529000","wikiDataId":"Q31490281","type":"administrative","placeRank":14},"Q21764555":{"countryCode":"BE","countyCode":"BE-WAL","code":"Q21764555","name":"Rochefort","latitude":"50.16310000","longitude":"5.22160000","wikiDataId":"Q21764555","type":"administrative","placeRank":14},"Q34481995":{"countryCode":"BE","countyCode":"BE-WAL","code":"Q34481995","name":"Le Roeulx","latitude":"50.50365000","longitude":"4.11163000","wikiDataId":"Q34481995","type":"administrative","placeRank":14},"Q21764632":{"countryCode":"BE","countyCode":"BE-WAL","code":"Q21764632","name":"Rouvroy","latitude":"49.53771000","longitude":"5.49031000","wikiDataId":"Q21764632","type":"administrative","placeRank":14},"Q21764647":{"countryCode":"BE","countyCode":"BE-WAL","code":"Q21764647","name":"Rumes","latitude":"50.55450000","longitude":"3.30535000","wikiDataId":"Q21764647","type":"administrative","placeRank":14},"Q31499143":{"countryCode":"BE","countyCode":"BE-WAL","code":"Q31499143","name":"Saint-Ghislain","latitude":"50.44816000","longitude":"3.81886000","wikiDataId":"Q31499143","type":"administrative","placeRank":14},"Q21764663":{"countryCode":"BE","countyCode":"BE-WAL","code":"Q21764663","name":"Saint-Hubert","latitude":"50.02668000","longitude":"5.37401000","wikiDataId":"Q21764663","type":"administrative","placeRank":14},"Q21764678":{"countryCode":"BE","countyCode":"BE-WAL","code":"Q21764678","name":"Saint-Léger","latitude":"49.61196000","longitude":"5.65688000","wikiDataId":"Q21764678","type":"administrative","placeRank":14},"Q21764685":{"countryCode":"BE","countyCode":"BE-WAL","code":"Q21764685","name":"Saint-Nicolas","latitude":"50.62837000","longitude":"5.53243000","wikiDataId":"Q21764685","type":"administrative","placeRank":14},"Q21764698":{"countryCode":"BE","countyCode":"BE-WAL","code":"Q21764698","name":"Sankt Vith","latitude":"50.28146000","longitude":"6.12724000","wikiDataId":"Q21764698","type":"administrative","placeRank":14},"Q21764661":{"countryCode":"BE","countyCode":"BE-WAL","code":"Q21764661","name":"Sainte-Ode","latitude":"50.01723000","longitude":"5.51926000","wikiDataId":"Q21764661","type":"administrative","placeRank":14},"Q21764775":{"countryCode":"BE","countyCode":"BE-WAL","code":"Q21764775","name":"Seneffe","latitude":"50.53135000","longitude":"4.26301000","wikiDataId":"Q21764775","type":"administrative","placeRank":14},"Q31516025":{"countryCode":"BE","countyCode":"BE-WAL","code":"Q31516025","name":"Seraing","latitude":"50.58362000","longitude":"5.50115000","wikiDataId":"Q31516025","type":"administrative","placeRank":14},"Q21764794":{"countryCode":"BE","countyCode":"BE-WAL","code":"Q21764794","name":"Opzullik","latitude":"50.64877000","longitude":"3.92363000","wikiDataId":"Q21764794","type":"administrative","placeRank":14},"Q21764852":{"countryCode":"BE","countyCode":"BE-WAL","code":"Q21764852","name":"Zinnik","latitude":"50.57904000","longitude":"4.07129000","wikiDataId":"Q21764852","type":"administrative","placeRank":14},"Q21764861":{"countryCode":"BE","countyCode":"BE-WAL","code":"Q21764861","name":"Sombreffe","latitude":"50.52865000","longitude":"4.60087000","wikiDataId":"Q21764861","type":"administrative","placeRank":14},"Q21763286":{"countryCode":"BE","countyCode":"BE-WAL","code":"Q21763286","name":"Somme-Leuze","latitude":"50.33699000","longitude":"5.36705000","wikiDataId":"Q21763286","type":"administrative","placeRank":14},"Q21763297":{"countryCode":"BE","countyCode":"BE-WAL","code":"Q21763297","name":"Soumagne","latitude":"50.61385000","longitude":"5.74679000","wikiDataId":"Q21763297","type":"administrative","placeRank":14},"Q21763303":{"countryCode":"BE","countyCode":"BE-WAL","code":"Q21763303","name":"Spa","latitude":"50.48375000","longitude":"5.86674000","wikiDataId":"Q21763303","type":"administrative","placeRank":14},"Q21763331":{"countryCode":"BE","countyCode":"BE-WAL","code":"Q21763331","name":"Sprimont","latitude":"50.50922000","longitude":"5.65950000","wikiDataId":"Q21763331","type":"administrative","placeRank":14},"Q31532444":{"countryCode":"BE","countyCode":"BE-WAL","code":"Q31532444","name":"Stavelot","latitude":"50.39500000","longitude":"5.93124000","wikiDataId":"Q31532444","type":"administrative","placeRank":14},"Q31534739":{"countryCode":"BE","countyCode":"BE-WAL","code":"Q31534739","name":"Stoumont","latitude":"50.40667000","longitude":"5.80838000","wikiDataId":"Q31534739","type":"administrative","placeRank":14},"Q21763428":{"countryCode":"BE","countyCode":"BE-WAL","code":"Q21763428","name":"Tellin","latitude":"50.08038000","longitude":"5.21638000","wikiDataId":"Q21763428","type":"administrative","placeRank":14},"Q12376730":{"countryCode":"BE","countyCode":"BE-WAL","code":"Q12376730","name":"Tenneville","latitude":"50.09501000","longitude":"5.52895000","wikiDataId":"Q12376730","type":"administrative","placeRank":14},"Q21763446":{"countryCode":"BE","countyCode":"BE-WAL","code":"Q21763446","name":"Theux","latitude":"50.53323000","longitude":"5.81245000","wikiDataId":"Q21763446","type":"administrative","placeRank":14},"Q21763461":{"countryCode":"BE","countyCode":"BE-WAL","code":"Q21763461","name":"Thuin","latitude":"50.33933000","longitude":"4.28604000","wikiDataId":"Q21763461","type":"administrative","placeRank":14},"Q21763481":{"countryCode":"BE","countyCode":"BE-WAL","code":"Q21763481","name":"Tinlot","latitude":"50.47493000","longitude":"5.37755000","wikiDataId":"Q21763481","type":"administrative","placeRank":14},"Q21763483":{"countryCode":"BE","countyCode":"BE-WAL","code":"Q21763483","name":"Tintigny","latitude":"49.68326000","longitude":"5.51349000","wikiDataId":"Q21763483","type":"administrative","placeRank":14},"Q51462855":{"countryCode":"BE","countyCode":"BE-WAL","code":"Q51462855","name":"Doornik","latitude":"50.60715000","longitude":"3.38932000","wikiDataId":"Q51462855","type":"administrative","placeRank":14},"Q21763511":{"countryCode":"BE","countyCode":"BE-WAL","code":"Q21763511","name":"Trois-Ponts","latitude":"50.37128000","longitude":"5.87146000","wikiDataId":"Q21763511","type":"administrative","placeRank":14},"Q21763520":{"countryCode":"BE","countyCode":"BE-WAL","code":"Q21763520","name":"Trooz","latitude":"50.57026000","longitude":"5.69521000","wikiDataId":"Q21763520","type":"administrative","placeRank":14},"Q31562355":{"countryCode":"BE","countyCode":"BE-WAL","code":"Q31562355","name":"Tubeke","latitude":"50.69059000","longitude":"4.20090000","wikiDataId":"Q31562355","type":"administrative","placeRank":14},"Q21763552":{"countryCode":"BE","countyCode":"BE-WAL","code":"Q21763552","name":"Vaux-sur-Sûre","latitude":"49.91100000","longitude":"5.57848000","wikiDataId":"Q21763552","type":"administrative","placeRank":14},"Q21763570":{"countryCode":"BE","countyCode":"BE-WAL","code":"Q21763570","name":"Verlaine","latitude":"50.60743000","longitude":"5.31740000","wikiDataId":"Q21763570","type":"administrative","placeRank":14},"Q31571899":{"countryCode":"BE","countyCode":"BE-WAL","code":"Q31571899","name":"Verviers","latitude":"50.58907000","longitude":"5.86241000","wikiDataId":"Q31571899","type":"administrative","placeRank":14},"Q21760040":{"countryCode":"BE","countyCode":"BE-WAL","code":"Q21760040","name":"Vielsalm","latitude":"50.28407000","longitude":"5.91502000","wikiDataId":"Q21760040","type":"administrative","placeRank":14},