{"Q507567":{"countryCode":"BR","countyCode":"BR-AC","code":"Q507567","name":"Acorizal","latitude":"-9.98045000","longitude":"-66.84388000","wikiDataId":"Q507567","type":"administrative","placeRank":16},"Q742227":{"countryCode":"BR","countyCode":"BR-AC","code":"Q742227","name":"Assis","latitude":"-10.88334000","longitude":"-70.01314000","wikiDataId":"Q742227","type":"administrative","placeRank":16},"Q899406":{"countryCode":"BR","countyCode":"BR-AC","code":"Q899406","name":"Brasiléia","latitude":"-11.01611000","longitude":"-68.74806000","wikiDataId":"Q899406","type":"administrative","placeRank":16},"Q1793226":{"countryCode":"BR","countyCode":"BR-AC","code":"Q1793226","name":"Bugre","latitude":"-9.57859000","longitude":"-68.17197000","wikiDataId":"Q1793226","type":"administrative","placeRank":16},"Q1750439":{"countryCode":"BR","countyCode":"BR-AC","code":"Q1750439","name":"Capivari","latitude":"-10.48782000","longitude":"-67.84831000","wikiDataId":"Q1750439","type":"administrative","placeRank":16},"Q941136":{"countryCode":"BR","countyCode":"BR-AC","code":"Q941136","name":"Cruzeiro do Sul","latitude":"-7.62759000","longitude":"-72.67756000","wikiDataId":"Q941136","type":"administrative","placeRank":16}}