{"Q962529":{"countryCode":"GT","countyCode":"GT-BV","code":"Q962529","name":"San Jerónimo","latitude":"15.06032000","longitude":"-90.24050000","wikiDataId":"Q962529","type":"administrative","placeRank":16},"Q1573447":{"countryCode":"GT","countyCode":"GT-CM","code":"Q1573447","name":"El Tejar","latitude":"14.64683000","longitude":"-90.79122000","wikiDataId":"Q1573447","type":"administrative","placeRank":16},"Q1572856":{"countryCode":"GT","countyCode":"GT-CM","code":"Q1572856","name":"Zaragoza","latitude":"14.64968000","longitude":"-90.89034000","wikiDataId":"Q1572856","type":"administrative","placeRank":16},"Q3058634":{"countryCode":"GT","countyCode":"GT-CQ","code":"Q3058634","name":"Esquipulas","latitude":"14.56571000","longitude":"-89.35166000","wikiDataId":"Q3058634","type":"administrative","placeRank":16},"Q978109":{"countryCode":"GT","countyCode":"GT-CQ","code":"Q978109","name":"San Jacinto","latitude":"14.66667000","longitude":"-89.50000000","wikiDataId":"Q978109","type":"administrative","placeRank":16},"Q2608447":{"countryCode":"GT","countyCode":"GT-QZ","code":"Q2608447","name":"La Esperanza","latitude":"14.87169000","longitude":"-91.56140000","wikiDataId":"Q2608447","type":"administrative","placeRank":16},"Q523244":{"countryCode":"GT","countyCode":"GT-ES","code":"Q523244","name":"Palín","latitude":"14.40358000","longitude":"-90.69659000","wikiDataId":"Q523244","type":"administrative","placeRank":16},"Q246164":{"countryCode":"GT","countyCode":"GT-GU","code":"Q246164","name":"Palencia","latitude":"14.66715000","longitude":"-90.35721000","wikiDataId":"Q246164","type":"administrative","placeRank":16},"Q1018584":{"countryCode":"GT","countyCode":"GT-GU","code":"Q1018584","name":"Villa Nueva","latitude":"14.52512000","longitude":"-90.58544000","wikiDataId":"Q1018584","type":"administrative","placeRank":16},"Q1748790":{"countryCode":"GT","countyCode":"GT-HU","code":"Q1748790","name":"La Libertad","latitude":"15.51421000","longitude":"-91.86944000","wikiDataId":"Q1748790","type":"administrative","placeRank":16},"Q2401903":{"countryCode":"GT","countyCode":"GT-HU","code":"Q2401903","name":"Santa Bárbara","latitude":"15.31617000","longitude":"-91.63279000","wikiDataId":"Q2401903","type":"administrative","placeRank":16},"Q1748868":{"countryCode":"GT","countyCode":"GT-HU","code":"Q1748868","name":"Santa Eulalia","latitude":"15.73060000","longitude":"-91.45846000","wikiDataId":"Q1748868","type":"administrative","placeRank":16},"Q1192713":{"countryCode":"GT","countyCode":"GT-IZ","code":"Q1192713","name":"Livingston","latitude":"15.82826000","longitude":"-88.75039000","wikiDataId":"Q1192713","type":"administrative","placeRank":16},"Q41804":{"countryCode":"GT","countyCode":"GT-IZ","code":"Q41804","name":"Morales","latitude":"15.48333000","longitude":"-88.81667000","wikiDataId":"Q41804","type":"administrative","placeRank":16},"Q1023359":{"countryCode":"GT","countyCode":"GT-JA","code":"Q1023359","name":"Jalapa","latitude":"14.63472000","longitude":"-89.98889000","wikiDataId":"Q1023359","type":"municipality","placeRank":14},"Q2403493":{"countryCode":"GT","countyCode":"GT-JU","code":"Q2403493","name":"Agua Blanca","latitude":"14.50000000","longitude":"-89.65000000","wikiDataId":"Q2403493","type":"administrative","placeRank":16},"Q989812":{"countryCode":"GT","countyCode":"GT-PE","code":"Q989812","name":"Dolores","latitude":"16.51178000","longitude":"-89.41704000","wikiDataId":"Q989812","type":"administrative","placeRank":16},"Q686756":{"countryCode":"GT","countyCode":"GT-JU","code":"Q686756","name":"El Progreso","latitude":"14.35000000","longitude":"-89.85000000","wikiDataId":"Q686756","type":"administrative","placeRank":16},"Q1749094":{"countryCode":"GT","countyCode":"GT-JU","code":"Q1749094","name":"Jerez","latitude":"14.10000000","longitude":"-89.75000000","wikiDataId":"Q1749094","type":"administrative","placeRank":16},"Q679383":{"countryCode":"GT","countyCode":"GT-PE","code":"Q679383","name":"Flores","latitude":"16.92258000","longitude":"-89.89941000","wikiDataId":"Q679383","type":"island","placeRank":17},"Q164481":{"countryCode":"GT","countyCode":"GT-PE","code":"Q164481","name":"La Libertad","latitude":"16.78850000","longitude":"-90.11698000","wikiDataId":"Q164481","type":"administrative","placeRank":16},"Q25175887":{"countryCode":"GT","countyCode":"GT-TO","code":"Q25175887","name":"Santa Ana","latitude":"15.02886000","longitude":"-91.32917000","wikiDataId":"Q25175887","type":"administrative","placeRank":16},"Q1005008":{"countryCode":"GT","countyCode":"GT-PE","code":"Q1005008","name":"San Andrés","latitude":"16.96667000","longitude":"-89.91667000","wikiDataId":"Q1005008","type":"island","placeRank":17},"Q796492":{"countryCode":"GT","countyCode":"GT-PE","code":"Q796492","name":"San Francisco","latitude":"16.80000000","longitude":"-89.93333000","wikiDataId":"Q796492","type":"administrative","placeRank":16},"Q741169":{"countryCode":"GT","countyCode":"GT-PE","code":"Q741169","name":"San José","latitude":"16.98333000","longitude":"-89.90000000","wikiDataId":"Q741169","type":"administrative","placeRank":16},"Q1020572":{"countryCode":"GT","countyCode":"GT-QC","code":"Q1020572","name":"San Luis","latitude":"15.78722000","longitude":"-91.09500000","wikiDataId":"Q1020572","type":"administrative","placeRank":14},"Q1005733":{"countryCode":"GT","countyCode":"GT-PE","code":"Q1005733","name":"Santa Ana","latitude":"16.80000000","longitude":"-89.83333000","wikiDataId":"Q1005733","type":"administrative","placeRank":16},"Q2717583":{"countryCode":"GT","countyCode":"GT-QZ","code":"Q2717583","name":"El Palmar","latitude":"14.65083000","longitude":"-91.57800000","wikiDataId":"Q2717583","type":"administrative","placeRank":16},"Q3123016":{"countryCode":"GT","countyCode":"GT-QZ","code":"Q3123016","name":"Génova","latitude":"14.61667000","longitude":"-91.83333000","wikiDataId":"Q3123016","type":"administrative","placeRank":16},"Q938168":{"countryCode":"GT","countyCode":"GT-QZ","code":"Q938168","name":"San Mateo","latitude":"14.85800000","longitude":"-91.59004000","wikiDataId":"Q938168","type":"administrative","placeRank":16},"Q3177464":{"countryCode":"GT","countyCode":"GT-QC","code":"Q3177464","name":"Chiché","latitude":"15.00885000","longitude":"-91.06379000","wikiDataId":"Q3177464","type":"administrative","placeRank":16},"Q1748865":{"countryCode":"GT","countyCode":"GT-RE","code":"Q1748865","name":"San Felipe","latitude":"14.62304000","longitude":"-91.59500000","wikiDataId":"Q1748865","type":"administrative","placeRank":16},"Q2402108":{"countryCode":"GT","countyCode":"GT-RE","code":"Q2402108","name":"San Sebastián","latitude":"14.56177000","longitude":"-91.64865000","wikiDataId":"Q2402108","type":"administrative","placeRank":16},"Q2644237":{"countryCode":"GT","countyCode":"GT-SA","code":"Q2644237","name":"Pastores","latitude":"14.59433000","longitude":"-90.75473000","wikiDataId":"Q2644237","type":"administrative","placeRank":16},"Q1748875":{"countryCode":"GT","countyCode":"GT-SM","code":"Q1748875","name":"Catarina","latitude":"14.85354000","longitude":"-92.07682000","wikiDataId":"Q1748875","type":"administrative","placeRank":16},"Q1748856":{"countryCode":"GT","countyCode":"GT-SM","code":"Q1748856","name":"La Reforma","latitude":"14.80104000","longitude":"-91.82233000","wikiDataId":"Q1748856","type":"administrative","placeRank":16},"Q3879296":{"countryCode":"GT","countyCode":"GT-SM","code":"Q3879296","name":"Nuevo Progreso","latitude":"14.79174000","longitude":"-91.91946000","wikiDataId":"Q3879296","type":"administrative","placeRank":16},"Q3943212":{"countryCode":"GT","countyCode":"GT-SM","code":"Q3943212","name":"Río Blanco","latitude":"15.03820000","longitude":"-91.68463000","wikiDataId":"Q3943212","type":"administrative","placeRank":16},"Q845976":{"countryCode":"GT","countyCode":"GT-SM","code":"Q845976","name":"San Lorenzo","latitude":"15.03087000","longitude":"-91.73534000","wikiDataId":"Q845976","type":"administrative","placeRank":16},"Q1023981":{"countryCode":"GT","countyCode":"GT-SM","code":"Q1023981","name":"San Marcos","latitude":"14.96389000","longitude":"-91.79444000","wikiDataId":"Q1023981","type":"administrative","placeRank":16},"Q3306697":{"countryCode":"GT","countyCode":"GT-SM","code":"Q3306697","name":"San Pablo","latitude":"14.93269000","longitude":"-92.00415000","wikiDataId":"Q3306697","type":"administrative","placeRank":16},"Q1748683":{"countryCode":"GT","countyCode":"GT-SR","code":"Q1748683","name":"Casillas","latitude":"14.42222000","longitude":"-90.24417000","wikiDataId":"Q1748683","type":"administrative","placeRank":16},"Q3949243":{"countryCode":"GT","countyCode":"GT-SR","code":"Q3949243","name":"Santa Rosa de Lima","latitude":"14.38806000","longitude":"-90.29556000","wikiDataId":"Q3949243","type":"administrative","placeRank":16},"Q1748599":{"countryCode":"GT","countyCode":"GT-SO","code":"Q1748599","name":"Concepción","latitude":"14.78417000","longitude":"-91.14754000","wikiDataId":"Q1748599","type":"administrative","placeRank":16},"Q3925380":{"countryCode":"GT","countyCode":"GT-SU","code":"Q3925380","name":"Pueblo Nuevo","latitude":"14.64709000","longitude":"-91.53946000","wikiDataId":"Q3925380","type":"administrative","placeRank":16},"Q1748849":{"countryCode":"GT","countyCode":"GT-SU","code":"Q1748849","name":"Río Bravo","latitude":"14.40042000","longitude":"-91.31713000","wikiDataId":"Q1748849","type":"administrative","placeRank":16},"Q1748616":{"countryCode":"GT","countyCode":"GT-SU","code":"Q1748616","name":"San Bernardino","latitude":"14.54240000","longitude":"-91.45811000","wikiDataId":"Q1748616","type":"administrative","placeRank":16},"Q1748775":{"countryCode":"GT","countyCode":"GT-SU","code":"Q1748775","name":"San Gabriel","latitude":"14.51076000","longitude":"-91.50745000","wikiDataId":"Q1748775","type":"administrative","placeRank":16},"Q1748787":{"countryCode":"GT","countyCode":"GT-SU","code":"Q1748787","name":"San Juan Bautista","latitude":"14.42274000","longitude":"-91.17904000","wikiDataId":"Q1748787","type":"administrative","placeRank":16},"Q3947493":{"countryCode":"GT","countyCode":"GT-SU","code":"Q3947493","name":"San Lorenzo","latitude":"14.48606000","longitude":"-91.51263000","wikiDataId":"Q3947493","type":"administrative","placeRank":16},"Q1748767":{"countryCode":"GT","countyCode":"GT-SU","code":"Q1748767","name":"Santa Bárbara","latitude":"14.43563000","longitude":"-91.22685000","wikiDataId":"Q1748767","type":"administrative","placeRank":16},"Q2401769":{"countryCode":"GT","countyCode":"GT-TO","code":"Q2401769","name":"San Bartolo","latitude":"15.08438000","longitude":"-91.45606000","wikiDataId":"Q2401769","type":"administrative","placeRank":16}}