{"Q809428":{"countryCode":"GY","countyCode":"GY-CU","code":"Q809428","name":"Bartica","latitude":"6.40799000","longitude":"-58.62192000","wikiDataId":"Q809428","type":"city","placeRank":16},"Q10717":{"countryCode":"GY","countyCode":"GY-DE","code":"Q10717","name":"Georgetown","latitude":"6.80448000","longitude":"-58.15527000","wikiDataId":"Q10717","type":"city","placeRank":16},"Q1018877":{"countryCode":"GY","countyCode":"GY-ES","code":"Q1018877","name":"Vreed en Hoop","latitude":"6.80927000","longitude":"-58.19798000","wikiDataId":"Q1018877","type":"city","placeRank":16},"Q563067":{"countryCode":"GY","countyCode":"GY-PM","code":"Q563067","name":"Anna Regina","latitude":"7.26439000","longitude":"-58.50769000","wikiDataId":"Q563067","type":"city","placeRank":16},"Q1020481":{"countryCode":"GY","countyCode":"GY-PT","code":"Q1020481","name":"Mahdia","latitude":"5.26667000","longitude":"-59.15000000","wikiDataId":"Q1020481","type":"city","placeRank":16},"Q1203781":{"countryCode":"GY","countyCode":"GY-UT","code":"Q1203781","name":"Lethem","latitude":"3.38333000","longitude":"-59.80000000","wikiDataId":"Q1203781","type":"city","placeRank":16}}