{"Q394257":{"countryCode":"HT","countyCode":"HT-ND","code":"Q394257","name":"Žrnovo","latitude":"19.66667000","longitude":"-72.28333000","wikiDataId":"Q394257","type":"administrative","placeRank":16},"Q2076213":{"countryCode":"HT","countyCode":"HT-OU","code":"Q2076213","name":"Kwadèbouke","latitude":"18.54472000","longitude":"-72.30278000","wikiDataId":"Q2076213","type":"city","placeRank":16},"Q986301":{"countryCode":"HT","countyCode":"HT-GA","code":"Q986301","name":"Jeremi","latitude":"18.65000000","longitude":"-74.11667000","wikiDataId":"Q986301","type":"administrative","placeRank":16},"Q2229438":{"countryCode":"HT","countyCode":"HT-SD","code":"Q2229438","name":"Lenbe","latitude":"18.30540000","longitude":"-74.21968000","wikiDataId":"Q2229438","type":"administrative","placeRank":16},"Q1017073":{"countryCode":"HT","countyCode":"HT-NI","code":"Q1017073","name":"Miragwàn","latitude":"18.44599000","longitude":"-73.08957000","wikiDataId":"Q1017073","type":"city","placeRank":16},"Q216835":{"countryCode":"HT","countyCode":"HT-ND","code":"Q216835","name":"Kap Ayisyen","latitude":"19.75938000","longitude":"-72.19815000","wikiDataId":"Q216835","type":"city","placeRank":16},"Q2430177":{"countryCode":"HT","countyCode":"HT-ND","code":"Q2430177","name":"Pilat","latitude":"19.75180000","longitude":"-72.43006000","wikiDataId":"Q2430177","type":"administrative","placeRank":16},"Q1001440":{"countryCode":"HT","countyCode":"HT-OU","code":"Q1001440","name":"Petyonvil","latitude":"18.51250000","longitude":"-72.28528000","wikiDataId":"Q1001440","type":"city","placeRank":16},"Q1013066":{"countryCode":"HT","countyCode":"HT-NE","code":"Q1013066","name":"Wanament","latitude":"19.52201000","longitude":"-71.92323000","wikiDataId":"Q1013066","type":"city","placeRank":16},"Q2198738":{"countryCode":"HT","countyCode":"HT-NE","code":"Q2198738","name":"Tòbèk","latitude":"19.61668000","longitude":"-72.02442000","wikiDataId":"Q2198738","type":"administrative","placeRank":16},"Q26228056":{"countryCode":"HT","countyCode":"HT-OU","code":"Q26228056","name":"Anse-à-Galets","latitude":"18.83449000","longitude":"-72.86644000","wikiDataId":"Q26228056","type":"city","placeRank":16},"Q583445":{"countryCode":"HT","countyCode":"HT-OU","code":"Q583445","name":"Leyogàn","latitude":"18.51110000","longitude":"-72.63343000","wikiDataId":"Q583445","type":"city","placeRank":16},"Q2636470":{"countryCode":"HT","countyCode":"HT-SD","code":"Q2636470","name":"Chantal","latitude":"18.20169000","longitude":"-73.88957000","wikiDataId":"Q2636470","type":"administrative","placeRank":16},"Q984786":{"countryCode":"HT","countyCode":"HT-SD","code":"Q984786","name":"Okay","latitude":"18.19331000","longitude":"-73.74601000","wikiDataId":"Q984786","type":"administrative","placeRank":16}}