{"Q814900":{"countryCode":"IL","countyCode":"IL-Z","code":"Q814900","name":"בית ג׳ן","latitude":"32.96464000","longitude":"35.38152000","wikiDataId":"Q814900","type":"administrative","placeRank":16},"Q2915758":{"countryCode":"IL","countyCode":"IL-M","code":"Q2915758","name":"בני עי״ש","latitude":"31.78333000","longitude":"34.75000000","wikiDataId":"Q2915758","type":"administrative","placeRank":16},"Q2920239":{"countryCode":"IL","countyCode":"IL-M","code":"Q2920239","name":"אליכין","latitude":"32.40793000","longitude":"34.92433000","wikiDataId":"Q2920239","type":"administrative","placeRank":16},"Q1022481":{"countryCode":"IL","countyCode":"IL-M","code":"Q1022481","name":"טייבה","latitude":"32.26616000","longitude":"35.00893000","wikiDataId":"Q1022481","type":"administrative","placeRank":16},"Q2915760":{"countryCode":"IL","countyCode":"IL-M","code":"Q2915760","name":"אבן יהודה","latitude":"32.26959000","longitude":"34.88759000","wikiDataId":"Q2915760","type":"administrative","placeRank":16},"Q924849":{"countryCode":"IL","countyCode":"IL-M","code":"Q924849","name":"גן יבנה","latitude":"31.78737000","longitude":"34.70659000","wikiDataId":"Q924849","type":"administrative","placeRank":16},"Q2920123":{"countryCode":"IL","countyCode":"IL-M","code":"Q2920123","name":"גני תקווה","latitude":"32.05971000","longitude":"34.87320000","wikiDataId":"Q2920123","type":"administrative","placeRank":16},"Q921505":{"countryCode":"IL","countyCode":"IL-M","code":"Q921505","name":"גדרה","latitude":"31.81456000","longitude":"34.77998000","wikiDataId":"Q921505","type":"administrative","placeRank":16},"Q152379":{"countryCode":"IL","countyCode":"IL-M","code":"Q152379","name":"הוד השרון","latitude":"32.15934000","longitude":"34.89320000","wikiDataId":"Q152379","type":"administrative","placeRank":16},"Q180294":{"countryCode":"IL","countyCode":"IL-TA","code":"Q180294","name":"יפו","latitude":"32.05043000","longitude":"34.75224000","wikiDataId":"Q180294","type":"administrative","placeRank":16},"Q152659":{"countryCode":"IL","countyCode":"IL-M","code":"Q152659","name":"כפר קאסם","latitude":"32.11406000","longitude":"34.97624000","wikiDataId":"Q152659","type":"administrative","placeRank":16},"Q2640074":{"countryCode":"IL","countyCode":"IL-M","code":"Q2640074","name":"כפר יונה","latitude":"32.31669000","longitude":"34.93507000","wikiDataId":"Q2640074","type":"administrative","placeRank":16},"Q152436":{"countryCode":"IL","countyCode":"IL-M","code":"Q152436","name":"כפר סבא","latitude":"32.17500000","longitude":"34.90694000","wikiDataId":"Q152436","type":"administrative","placeRank":16},"Q207540":{"countryCode":"IL","countyCode":"IL-M","code":"Q207540","name":"לוד","latitude":"31.94670000","longitude":"34.89030000","wikiDataId":"Q207540","type":"administrative","placeRank":16},"Q1914736":{"countryCode":"IL","countyCode":"IL-M","code":"Q1914736","name":"מזכרת בתיה","latitude":"31.85357000","longitude":"34.84646000","wikiDataId":"Q1914736","type":"administrative","placeRank":16},"Q168162":{"countryCode":"IL","countyCode":"IL-M","code":"Q168162","name":"נס ציונה","latitude":"31.92933000","longitude":"34.79868000","wikiDataId":"Q168162","type":"administrative","placeRank":16},"Q192225":{"countryCode":"IL","countyCode":"IL-M","code":"Q192225","name":"נתניה","latitude":"32.33291000","longitude":"34.85992000","wikiDataId":"Q192225","type":"administrative","placeRank":16},"Q1018875":{"countryCode":"IL","countyCode":"IL-M","code":"Q1018875","name":"פרדסיה","latitude":"32.30577000","longitude":"34.90911000","wikiDataId":"Q1018875","type":"administrative","placeRank":16},"Q190828":{"countryCode":"IL","countyCode":"IL-M","code":"Q190828","name":"פתח תקווה","latitude":"32.28493000","longitude":"34.98106000","wikiDataId":"Q190828","type":"administrative","placeRank":16},"Q309164":{"countryCode":"IL","countyCode":"IL-M","code":"Q309164","name":"רעננה","latitude":"32.18360000","longitude":"34.87386000","wikiDataId":"Q309164","type":"administrative","placeRank":16},"Q221447":{"countryCode":"IL","countyCode":"IL-M","code":"Q221447","name":"רמלה","latitude":"31.92923000","longitude":"34.86563000","wikiDataId":"Q221447","type":"administrative","placeRank":16},"Q207350":{"countryCode":"IL","countyCode":"IL-M","code":"Q207350","name":"רחובות","latitude":"31.89421000","longitude":"34.81199000","wikiDataId":"Q207350","type":"administrative","placeRank":16},"Q201051":{"countryCode":"IL","countyCode":"IL-M","code":"Q201051","name":"ראשון לציון","latitude":"31.97102000","longitude":"34.78939000","wikiDataId":"Q201051","type":"administrative","placeRank":16},"Q168202":{"countryCode":"IL","countyCode":"IL-M","code":"Q168202","name":"ראש העין","latitude":"32.09556000","longitude":"34.95664000","wikiDataId":"Q168202","type":"administrative","placeRank":16},"Q592526":{"countryCode":"IL","countyCode":"IL-M","code":"Q592526","name":"סביון","latitude":"32.04966000","longitude":"34.87770000","wikiDataId":"Q592526","type":"administrative","placeRank":16},"Q304448":{"countryCode":"IL","countyCode":"IL-M","code":"Q304448","name":"שוהם","latitude":"31.99866000","longitude":"34.94559000","wikiDataId":"Q304448","type":"administrative","placeRank":16},"Q2304754":{"countryCode":"IL","countyCode":"IL-M","code":"Q2304754","name":"תל מונד","latitude":"32.24995000","longitude":"34.91737000","wikiDataId":"Q2304754","type":"administrative","placeRank":16},"Q167594":{"countryCode":"IL","countyCode":"IL-M","code":"Q167594","name":"טירה","latitude":"32.23410000","longitude":"34.95023000","wikiDataId":"Q167594","type":"administrative","placeRank":16},"Q167677":{"countryCode":"IL","countyCode":"IL-M","code":"Q167677","name":"יבנה","latitude":"31.87808000","longitude":"34.73983000","wikiDataId":"Q167677","type":"administrative","placeRank":16},"Q1000887":{"countryCode":"IL","countyCode":"IL-TA","code":"Q1000887","name":"יהוד","latitude":"32.02840000","longitude":"34.87960000","wikiDataId":"Q1000887","type":"administrative","placeRank":16},"Q1026821":{"countryCode":"IL","countyCode":"IL-HA","code":"Q1026821","name":"עיר הכרמל","latitude":"32.69383000","longitude":"35.04686000","wikiDataId":"Q1026821","type":"administrative","placeRank":16},"Q1011538":{"countryCode":"IL","countyCode":"IL-Z","code":"Q1011538","name":"פוריידיס","latitude":"32.98338000","longitude":"35.09837000","wikiDataId":"Q1011538","type":"administrative","placeRank":16},"Q471886":{"countryCode":"IL","countyCode":"IL-HA","code":"Q471886","name":"חדרה","latitude":"32.44192000","longitude":"34.90390000","wikiDataId":"Q471886","type":"administrative","placeRank":16},"Q41621":{"countryCode":"IL","countyCode":"IL-JM","code":"Q41621","name":"חיפה","latitude":"31.82754000","longitude":"35.13093000","wikiDataId":"Q41621","type":"administrative","placeRank":16},"Q2889270":{"countryCode":"IL","countyCode":"IL-HA","code":"Q2889270","name":"אבטין","latitude":"32.76150000","longitude":"35.11402000","wikiDataId":"Q2889270","type":"city","placeRank":16},"Q135432":{"countryCode":"IL","countyCode":"IL-HA","code":"Q135432","name":"נשר","latitude":"32.76622000","longitude":"35.04425000","wikiDataId":"Q135432","type":"administrative","placeRank":16},"Q152374":{"countryCode":"IL","countyCode":"IL-HA","code":"Q152374","name":"קריית ביאליק","latitude":"32.82750000","longitude":"35.08583000","wikiDataId":"Q152374","type":"administrative","placeRank":16},"Q152567":{"countryCode":"IL","countyCode":"IL-HA","code":"Q152567","name":"קריית מוצקין","latitude":"32.83706000","longitude":"35.07760000","wikiDataId":"Q152567","type":"administrative","placeRank":16},"Q152387":{"countryCode":"IL","countyCode":"IL-HA","code":"Q152387","name":"קריית ים","latitude":"32.84966000","longitude":"35.06973000","wikiDataId":"Q152387","type":"administrative","placeRank":16},"Q135485":{"countryCode":"IL","countyCode":"IL-HA","code":"Q135485","name":"רכסים","latitude":"32.74907000","longitude":"35.09901000","wikiDataId":"Q135485","type":"administrative","placeRank":16},"Q168245":{"countryCode":"IL","countyCode":"IL-HA","code":"Q168245","name":"אום אל-פחם","latitude":"32.51725000","longitude":"35.15349000","wikiDataId":"Q168245","type":"administrative","placeRank":16},"Q335023":{"countryCode":"IL","countyCode":"IL-JM","code":"Q335023","name":"אבו גוש","latitude":"31.80592000","longitude":"35.10930000","wikiDataId":"Q335023","type":"administrative","placeRank":16},"Q152449":{"countryCode":"IL","countyCode":"IL-JM","code":"Q152449","name":"בית שמש","latitude":"31.73072000","longitude":"34.99293000","wikiDataId":"Q152449","type":"administrative","placeRank":16},"Q1218":{"countryCode":"IL","countyCode":"IL-Z","code":"Q1218","name":"ירושלים","latitude":"32.92820000","longitude":"35.15705000","wikiDataId":"Q1218","type":"administrative","placeRank":16},"Q1025294":{"countryCode":"IL","countyCode":"IL-JM","code":"Q1025294","name":"מבשרת ציון","latitude":"31.80186000","longitude":"35.15072000","wikiDataId":"Q1025294","type":"administrative","placeRank":16},"Q2890554":{"countryCode":"IL","countyCode":"IL-JM","code":"Q2890554","name":"צור הדסה","latitude":"31.71912000","longitude":"35.09708000","wikiDataId":"Q2890554","type":"administrative","placeRank":16},"Q126084":{"countryCode":"IL","countyCode":"IL-Z","code":"Q126084","name":"עכו","latitude":"32.92814000","longitude":"35.07647000","wikiDataId":"Q126084","type":"administrative","placeRank":16},"Q152462":{"countryCode":"IL","countyCode":"IL-Z","code":"Q152462","name":"עפולה","latitude":"32.60907000","longitude":"35.28920000","wikiDataId":"Q152462","type":"administrative","placeRank":16},"Q2651477":{"countryCode":"IL","countyCode":"IL-Z","code":"Q2651477","name":"בסמת טבעון","latitude":"32.73898000","longitude":"35.15716000","wikiDataId":"Q2651477","type":"administrative","placeRank":16},"Q152368":{"countryCode":"IL","countyCode":"IL-Z","code":"Q152368","name":"בית שאן","latitude":"32.49728000","longitude":"35.49632000","wikiDataId":"Q152368","type":"administrative","placeRank":16},"Q152467":{"countryCode":"IL","countyCode":"IL-TA","code":"Q152467","name":"בני ברק","latitude":"32.08074000","longitude":"34.83380000","wikiDataId":"Q152467","type":"administrative","placeRank":16},"Q612483":{"countryCode":"IL","countyCode":"IL-Z","code":"Q612483","name":"דיר חנא","latitude":"32.86196000","longitude":"35.36365000","wikiDataId":"Q612483","type":"administrative","placeRank":16},"Q2655682":{"countryCode":"IL","countyCode":"IL-Z","code":"Q2655682","name":"ריינה","latitude":"32.72339000","longitude":"35.31622000","wikiDataId":"Q2655682","type":"administrative","placeRank":16},"Q2655024":{"countryCode":"IL","countyCode":"IL-Z","code":"Q2655024","name":"חורפיש","latitude":"33.01711000","longitude":"35.34835000","wikiDataId":"Q2655024","type":"administrative","placeRank":16},"Q1527236":{"countryCode":"IL","countyCode":"IL-Z","code":"Q1527236","name":"ג׳ש (גוש חלב)","latitude":"33.02216000","longitude":"35.44694000","wikiDataId":"Q1527236","type":"administrative","placeRank":16},"Q1018884":{"countryCode":"IL","countyCode":"IL-Z","code":"Q1018884","name":"כאבול","latitude":"32.86856000","longitude":"35.21171000","wikiDataId":"Q1018884","type":"administrative","placeRank":16},"Q2576600":{"countryCode":"IL","countyCode":"IL-Z","code":"Q2576600","name":"כפר כמא","latitude":"32.72129000","longitude":"35.44122000","wikiDataId":"Q2576600","type":"administrative","placeRank":16},"Q2633158":{"countryCode":"IL","countyCode":"IL-Z","code":"Q2633158","name":"כפר כנא","latitude":"32.74660000","longitude":"35.34242000","wikiDataId":"Q2633158","type":"administrative","placeRank":16},"Q2915534":{"countryCode":"IL","countyCode":"IL-Z","code":"Q2915534","name":"כפר מנדא","latitude":"32.81034000","longitude":"35.26009000","wikiDataId":"Q2915534","type":"administrative","placeRank":16},"Q152418":{"countryCode":"IL","countyCode":"IL-Z","code":"Q152418","name":"כרמיאל","latitude":"32.91708000","longitude":"35.30501000","wikiDataId":"Q152418","type":"administrative","placeRank":16},"Q2604424":{"countryCode":"IL","countyCode":"IL-Z","code":"Q2604424","name":"כאוכב אבו אל-היג׳א","latitude":"32.83155000","longitude":"35.24848000","wikiDataId":"Q2604424","type":"administrative","placeRank":16},"Q1186956":{"countryCode":"IL","countyCode":"IL-Z","code":"Q1186956","name":"כפר תבור","latitude":"32.68655000","longitude":"35.42118000","wikiDataId":"Q1186956","type":"administrative","placeRank":16},"Q2915542":{"countryCode":"IL","countyCode":"IL-Z","code":"Q2915542","name":"כפר ורדים","latitude":"32.99385000","longitude":"35.27793000","wikiDataId":"Q2915542","type":"administrative","placeRank":16},"Q2632879":{"countryCode":"IL","countyCode":"IL-Z","code":"Q2632879","name":"כפר יאסיף","latitude":"32.95451000","longitude":"35.16230000","wikiDataId":"Q2632879","type":"administrative","placeRank":16},"Q152385":{"countryCode":"IL","countyCode":"IL-Z","code":"Q152385","name":"מעלות-תרשיחא","latitude":"33.01667000","longitude":"35.26667000","wikiDataId":"Q152385","type":"administrative","placeRank":16},"Q1011497":{"countryCode":"IL","countyCode":"IL-Z","code":"Q1011497","name":"מטולה","latitude":"33.27918000","longitude":"35.57950000","wikiDataId":"Q1011497","type":"administrative","placeRank":16},"Q2917297":{"countryCode":"IL","countyCode":"IL-Z","code":"Q2917297","name":"מעיליא","latitude":"33.02781000","longitude":"35.25658000","wikiDataId":"Q2917297","type":"administrative","placeRank":16},"Q168337":{"countryCode":"IL","countyCode":"IL-D","code":"Q168337","name":"מגדל העמק","latitude":"30.60944000","longitude":"34.80111000","wikiDataId":"Q168337","type":"administrative","placeRank":16},"Q167749":{"countryCode":"IL","countyCode":"IL-Z","code":"Q167749","name":"נהריה","latitude":"33.00892000","longitude":"35.09814000","wikiDataId":"Q167749","type":"administrative","placeRank":16},"Q2390257":{"countryCode":"IL","countyCode":"IL-Z","code":"Q2390257","name":"נחף","latitude":"32.93444000","longitude":"35.31679000","wikiDataId":"Q2390257","type":"administrative","placeRank":16},"Q430776":{"countryCode":"IL","countyCode":"IL-Z","code":"Q430776","name":"נצרת","latitude":"32.70056000","longitude":"35.29722000","wikiDataId":"Q430776","type":"administrative","placeRank":16},"Q934904":{"countryCode":"IL","countyCode":"IL-Z","code":"Q934904","name":"נין","latitude":"32.63063000","longitude":"35.34885000","wikiDataId":"Q934904","type":"administrative","placeRank":16},"Q2917294":{"countryCode":"IL","countyCode":"IL-Z","code":"Q2917294","name":"פסוטה","latitude":"33.04895000","longitude":"35.30893000","wikiDataId":"Q2917294","type":"administrative","placeRank":16},"Q327413":{"countryCode":"IL","countyCode":"IL-Z","code":"Q327413","name":"קריית שמונה","latitude":"33.20733000","longitude":"35.57212000","wikiDataId":"Q327413","type":"administrative","placeRank":16},"Q2615322":{"countryCode":"IL","countyCode":"IL-Z","code":"Q2615322","name":"רמת ישי","latitude":"32.70444000","longitude":"35.17070000","wikiDataId":"Q2615322","type":"administrative","placeRank":16},"Q525649":{"countryCode":"IL","countyCode":"IL-Z","code":"Q525649","name":"ראש פינה","latitude":"32.77802000","longitude":"35.30571000","wikiDataId":"Q525649","type":"administrative","placeRank":16},"Q188336":{"countryCode":"IL","countyCode":"IL-Z","code":"Q188336","name":"צפת","latitude":"32.96465000","longitude":"35.49600000","wikiDataId":"Q188336","type":"administrative","placeRank":16},"Q732433":{"countryCode":"IL","countyCode":"IL-Z","code":"Q732433","name":"סאג׳ור","latitude":"32.60606000","longitude":"35.33408000","wikiDataId":"Q732433","type":"administrative","placeRank":16},"Q168330":{"countryCode":"IL","countyCode":"IL-Z","code":"Q168330","name":"סח'נין","latitude":"32.86422000","longitude":"35.29707000","wikiDataId":"Q168330","type":"administrative","placeRank":16},"Q135421":{"countryCode":"IL","countyCode":"IL-Z","code":"Q135421","name":"שלומי","latitude":"32.69464000","longitude":"35.39252000","wikiDataId":"Q135421","type":"administrative","placeRank":16},"Q168176":{"countryCode":"IL","countyCode":"IL-Z","code":"Q168176","name":"טמרה","latitude":"32.85301000","longitude":"35.19870000","wikiDataId":"Q168176","type":"administrative","placeRank":16},"Q151920":{"countryCode":"IL","countyCode":"IL-Z","code":"Q151920","name":"טבריה","latitude":"32.79221000","longitude":"35.53124000","wikiDataId":"Q151920","type":"administrative","placeRank":16},"Q1676894":{"countryCode":"IL","countyCode":"IL-Z","code":"Q1676894","name":"יבנאל","latitude":"32.70619000","longitude":"35.50435000","wikiDataId":"Q1676894","type":"administrative","placeRank":16},"Q152473":{"countryCode":"IL","countyCode":"IL-D","code":"Q152473","name":"ערד","latitude":"31.25882000","longitude":"35.21282000","wikiDataId":"Q152473","type":"administrative","placeRank":16},"Q171639":{"countryCode":"IL","countyCode":"IL-D","code":"Q171639","name":"אשדוד","latitude":"31.79213000","longitude":"34.64966000","wikiDataId":"Q171639","type":"administrative","placeRank":16},"Q60956":{"countryCode":"IL","countyCode":"IL-D","code":"Q60956","name":"אשקלון","latitude":"31.66926000","longitude":"34.57149000","wikiDataId":"Q60956","type":"administrative","placeRank":16},"Q41843":{"countryCode":"IL","countyCode":"IL-D","code":"Q41843","name":"באר שבע","latitude":"31.25181000","longitude":"34.79130000","wikiDataId":"Q41843","type":"administrative","placeRank":16},"Q152396":{"countryCode":"IL","countyCode":"IL-D","code":"Q152396","name":"דימונה","latitude":"31.07079000","longitude":"35.03269000","wikiDataId":"Q152396","type":"administrative","placeRank":16},"Q134762":{"countryCode":"IL","countyCode":"IL-D","code":"Q134762","name":"אילת","latitude":"29.55805000","longitude":"34.94821000","wikiDataId":"Q134762","type":"administrative","placeRank":16},"Q1589806":{"countryCode":"IL","countyCode":"IL-D","code":"Q1589806","name":"להבים","latitude":"31.37284000","longitude":"34.81619000","wikiDataId":"Q1589806","type":"administrative","placeRank":16},"Q167649":{"countryCode":"IL","countyCode":"IL-D","code":"Q167649","name":"נתיבות","latitude":"31.42305000","longitude":"34.58911000","wikiDataId":"Q167649","type":"administrative","placeRank":16},"Q167632":{"countryCode":"IL","countyCode":"IL-D","code":"Q167632","name":"אופקים","latitude":"31.31410000","longitude":"34.62025000","wikiDataId":"Q167632","type":"administrative","placeRank":16},"Q152406":{"countryCode":"IL","countyCode":"IL-D","code":"Q152406","name":"קריית גת","latitude":"31.60998000","longitude":"34.76422000","wikiDataId":"Q152406","type":"administrative","placeRank":16},"Q167617":{"countryCode":"IL","countyCode":"IL-D","code":"Q167617","name":"רהט","latitude":"31.39547000","longitude":"34.75699000","wikiDataId":"Q167617","type":"administrative","placeRank":16},"Q123196":{"countryCode":"IL","countyCode":"IL-D","code":"Q123196","name":"שדרות","latitude":"31.52500000","longitude":"34.59693000","wikiDataId":"Q123196","type":"administrative","placeRank":16},"Q1687708":{"countryCode":"IL","countyCode":"IL-D","code":"Q1687708","name":"ירוחם","latitude":"30.98822000","longitude":"34.93176000","wikiDataId":"Q1687708","type":"administrative","placeRank":16},"Q952186":{"countryCode":"IL","countyCode":"IL-TA","code":"Q952186","name":"אזור","latitude":"32.02430000","longitude":"34.80632000","wikiDataId":"Q952186","type":"administrative","placeRank":16},"Q208725":{"countryCode":"IL","countyCode":"IL-TA","code":"Q208725","name":"בת ים","latitude":"32.02379000","longitude":"34.75185000","wikiDataId":"Q208725","type":"administrative","placeRank":16},"Q152641":{"countryCode":"IL","countyCode":"IL-TA","code":"Q152641","name":"גבעת שמואל","latitude":"32.07817000","longitude":"34.84858000","wikiDataId":"Q152641","type":"administrative","placeRank":16},"Q152413":{"countryCode":"IL","countyCode":"IL-TA","code":"Q152413","name":"גבעתיים","latitude":"32.07225000","longitude":"34.81253000","wikiDataId":"Q152413","type":"administrative","placeRank":16},"Q152491":{"countryCode":"IL","countyCode":"IL-TA","code":"Q152491","name":"הרצליה","latitude":"32.17409000","longitude":"34.80280000","wikiDataId":"Q152491","type":"administrative","placeRank":16},"Q192213":{"countryCode":"IL","countyCode":"IL-TA","code":"Q192213","name":"חולון","latitude":"32.01034000","longitude":"34.77918000","wikiDataId":"Q192213","type":"administrative","placeRank":16},"Q2389508":{"countryCode":"IL","countyCode":"IL-TA","code":"Q2389508","name":"כפר שמריהו","latitude":"32.18529000","longitude":"34.82082000","wikiDataId":"Q2389508","type":"administrative","placeRank":16},"Q950347":{"countryCode":"IL","countyCode":"IL-TA","code":"Q950347","name":"אור יהודה","latitude":"32.02923000","longitude":"34.85788000","wikiDataId":"Q950347","type":"administrative","placeRank":16},"Q192807":{"countryCode":"IL","countyCode":"IL-TA","code":"Q192807","name":"רמת גן","latitude":"32.08227000","longitude":"34.81065000","wikiDataId":"Q192807","type":"administrative","placeRank":16},"Q845866":{"countryCode":"IL","countyCode":"IL-TA","code":"Q845866","name":"רמת השרון","latitude":"32.14613000","longitude":"34.83940000","wikiDataId":"Q845866","type":"administrative","placeRank":16},"Q33935":{"countryCode":"IL","countyCode":"IL-TA","code":"Q33935","name":"תל אביב-יפו","latitude":"32.08088000","longitude":"34.78057000","wikiDataId":"Q33935","type":"administrative","placeRank":16}}