{"Q36529":{"countryCode":"IR","countyCode":"IR-30","code":"Q36529","name":"کرج","latitude":"35.83266000","longitude":"50.99155000","wikiDataId":"Q36529","type":"administrative","placeRank":14},"Q2570924":{"countryCode":"IR","countyCode":"IR-30","code":"Q2570924","name":"نظرآباد","latitude":"35.95411000","longitude":"50.60607000","wikiDataId":"Q2570924","type":"administrative","placeRank":14},"Q180103":{"countryCode":"IR","countyCode":"IR-24","code":"Q180103","name":"اردبیل","latitude":"38.24980000","longitude":"48.29330000","wikiDataId":"Q180103","type":"administrative","placeRank":14},"Q721034":{"countryCode":"IR","countyCode":"IR-27","code":"Q721034","name":"فسا","latitude":"37.15000000","longitude":"54.15000000","wikiDataId":"Q721034","type":"administrative","placeRank":14},"Q719764":{"countryCode":"IR","countyCode":"IR-07","code":"Q719764","name":"نورآباد","latitude":"30.11405000","longitude":"51.52174000","wikiDataId":"Q719764","type":"administrative","placeRank":14},"Q720064":{"countryCode":"IR","countyCode":"IR-24","code":"Q720064","name":"پارس‌آباد","latitude":"39.64820000","longitude":"47.91740000","wikiDataId":"Q720064","type":"administrative","placeRank":14},"Q720683":{"countryCode":"IR","countyCode":"IR-18","code":"Q720683","name":"برازجان","latitude":"29.26990000","longitude":"51.21880000","wikiDataId":"Q720683","type":"administrative","placeRank":14},"Q158928":{"countryCode":"IR","countyCode":"IR-18","code":"Q158928","name":"بندر بوشهر","latitude":"28.96887000","longitude":"50.83657000","wikiDataId":"Q158928","type":"administrative","placeRank":14},"Q888740":{"countryCode":"IR","countyCode":"IR-18","code":"Q888740","name":"دلیجان","latitude":"30.02286000","longitude":"50.35595000","wikiDataId":"Q888740","type":"administrative","placeRank":14},"Q814594":{"countryCode":"IR","countyCode":"IR-14","code":"Q814594","name":"بهشهر","latitude":"32.53556000","longitude":"50.75201000","wikiDataId":"Q814594","type":"administrative","placeRank":14},"Q888701":{"countryCode":"IR","countyCode":"IR-14","code":"Q888701","name":"بروجن","latitude":"31.96523000","longitude":"51.28730000","wikiDataId":"Q888701","type":"administrative","placeRank":14},"Q2634871":{"countryCode":"IR","countyCode":"IR-14","code":"Q2634871","name":"چلگرد","latitude":"32.46720000","longitude":"50.12229000","wikiDataId":"Q2634871","type":"administrative","placeRank":14},"Q2325495":{"countryCode":"IR","countyCode":"IR-14","code":"Q2325495","name":"فارسان","latitude":"32.25694000","longitude":"50.56095000","wikiDataId":"Q2325495","type":"administrative","placeRank":14},"Q765806":{"countryCode":"IR","countyCode":"IR-14","code":"Q765806","name":"سلماس","latitude":"32.44980000","longitude":"50.91379000","wikiDataId":"Q765806","type":"administrative","placeRank":14},"Q386649":{"countryCode":"IR","countyCode":"IR-14","code":"Q386649","name":"شهرکرد","latitude":"32.31667000","longitude":"50.80000000","wikiDataId":"Q386649","type":"administrative","placeRank":14},"Q911727":{"countryCode":"IR","countyCode":"IR-03","code":"Q911727","name":"اهر","latitude":"38.47740000","longitude":"47.06990000","wikiDataId":"Q911727","type":"administrative","placeRank":14},"Q499470":{"countryCode":"IR","countyCode":"IR-03","code":"Q499470","name":"ایلام","latitude":"37.47760000","longitude":"45.89430000","wikiDataId":"Q499470","type":"administrative","placeRank":14},"Q720710":{"countryCode":"IR","countyCode":"IR-03","code":"Q720710","name":"بناب","latitude":"37.34040000","longitude":"46.05610000","wikiDataId":"Q720710","type":"administrative","placeRank":14},"Q720586":{"countryCode":"IR","countyCode":"IR-03","code":"Q720586","name":"هشترود","latitude":"37.47790000","longitude":"47.05080000","wikiDataId":"Q720586","type":"administrative","placeRank":14},"Q721024":{"countryCode":"IR","countyCode":"IR-03","code":"Q721024","name":"مرند","latitude":"38.43290000","longitude":"45.77490000","wikiDataId":"Q721024","type":"administrative","placeRank":14},"Q863240":{"countryCode":"IR","countyCode":"IR-03","code":"Q863240","name":"سراب","latitude":"37.94080000","longitude":"47.53670000","wikiDataId":"Q863240","type":"administrative","placeRank":14},"Q80053":{"countryCode":"IR","countyCode":"IR-03","code":"Q80053","name":"تبریز","latitude":"38.08000000","longitude":"46.29190000","wikiDataId":"Q80053","type":"administrative","placeRank":14},"Q192928":{"countryCode":"IR","countyCode":"IR-07","code":"Q192928","name":"آباده","latitude":"31.16080000","longitude":"52.65060000","wikiDataId":"Q192928","type":"administrative","placeRank":14},"Q170366":{"countryCode":"IR","countyCode":"IR-07","code":"Q170366","name":"اهواز","latitude":"29.24640000","longitude":"52.77930000","wikiDataId":"Q170366","type":"administrative","placeRank":14},"Q719977":{"countryCode":"IR","countyCode":"IR-07","code":"Q719977","name":"داراب","latitude":"28.75194000","longitude":"54.54444000","wikiDataId":"Q719977","type":"administrative","placeRank":14},"Q720952":{"countryCode":"IR","countyCode":"IR-07","code":"Q720952","name":"فیروزآباد","latitude":"28.84380000","longitude":"52.57070000","wikiDataId":"Q720952","type":"administrative","placeRank":14},"Q720672":{"countryCode":"IR","countyCode":"IR-07","code":"Q720672","name":"گراش","latitude":"27.66966000","longitude":"54.13586000","wikiDataId":"Q720672","type":"administrative","placeRank":14},"Q721060":{"countryCode":"IR","countyCode":"IR-07","code":"Q721060","name":"کازرون","latitude":"29.61919000","longitude":"51.65350000","wikiDataId":"Q721060","type":"administrative","placeRank":14},"Q721029":{"countryCode":"IR","countyCode":"IR-07","code":"Q721029","name":"لار","latitude":"27.68336000","longitude":"54.34172000","wikiDataId":"Q721029","type":"administrative","placeRank":14},"Q2538472":{"countryCode":"IR","countyCode":"IR-07","code":"Q2538472","name":"ملارد","latitude":"30.03333000","longitude":"51.38333000","wikiDataId":"Q2538472","type":"administrative","placeRank":14},"Q604990":{"countryCode":"IR","countyCode":"IR-07","code":"Q604990","name":"مرودشت","latitude":"30.08333000","longitude":"52.66667000","wikiDataId":"Q604990","type":"administrative","placeRank":14},"Q2617085":{"countryCode":"IR","countyCode":"IR-07","code":"Q2617085","name":"مهر","latitude":"27.55520000","longitude":"52.88360000","wikiDataId":"Q2617085","type":"administrative","placeRank":14},"Q888715":{"countryCode":"IR","countyCode":"IR-07","code":"Q888715","name":"نی‌ریز","latitude":"29.19880000","longitude":"54.32780000","wikiDataId":"Q888715","type":"administrative","placeRank":14},"Q6397066":{"countryCode":"IR","countyCode":"IR-07","code":"Q6397066","name":"شیراز","latitude":"29.61031000","longitude":"52.53113000","wikiDataId":"Q6397066","type":"administrative","placeRank":14},"Q643176":{"countryCode":"IR","countyCode":"IR-01","code":"Q643176","name":"آستانه اشرفیه","latitude":"37.26318000","longitude":"49.94325000","wikiDataId":"Q643176","type":"administrative","placeRank":14},"Q645855":{"countryCode":"IR","countyCode":"IR-01","code":"Q645855","name":"آستارا","latitude":"38.33333000","longitude":"48.76667000","wikiDataId":"Q645855","type":"administrative","placeRank":14},"Q210885":{"countryCode":"IR","countyCode":"IR-01","code":"Q210885","name":"بندر انزلی","latitude":"37.47318000","longitude":"49.45785000","wikiDataId":"Q210885","type":"administrative","placeRank":14},"Q2427450":{"countryCode":"IR","countyCode":"IR-01","code":"Q2427450","name":"هشتپر","latitude":"37.79658000","longitude":"48.90521000","wikiDataId":"Q2427450","type":"administrative","placeRank":14},"Q721125":{"countryCode":"IR","countyCode":"IR-01","code":"Q721125","name":"لنگرود","latitude":"37.19548000","longitude":"50.15263000","wikiDataId":"Q721125","type":"administrative","placeRank":14},"Q178373":{"countryCode":"IR","countyCode":"IR-01","code":"Q178373","name":"رشت","latitude":"37.27611000","longitude":"49.58862000","wikiDataId":"Q178373","type":"administrative","placeRank":14},"Q765726":{"countryCode":"IR","countyCode":"IR-01","code":"Q765726","name":"رودسر","latitude":"37.13696000","longitude":"50.29174000","wikiDataId":"Q765726","type":"administrative","placeRank":14},"Q5709754":{"countryCode":"IR","countyCode":"IR-01","code":"Q5709754","name":"ضیابر","latitude":"37.42610000","longitude":"49.24590000","wikiDataId":"Q5709754","type":"administrative","placeRank":14},"Q2630350":{"countryCode":"IR","countyCode":"IR-27","code":"Q2630350","name":"آزادشهر","latitude":"37.08641000","longitude":"55.17222000","wikiDataId":"Q2630350","type":"administrative","placeRank":14},"Q1975291":{"countryCode":"IR","countyCode":"IR-27","code":"Q1975291","name":"گنبد کاووس","latitude":"37.25004000","longitude":"55.16721000","wikiDataId":"Q1975291","type":"city","placeRank":16},"Q188155":{"countryCode":"IR","countyCode":"IR-27","code":"Q188155","name":"گرگان","latitude":"36.84270000","longitude":"54.44391000","wikiDataId":"Q188155","type":"administrative","placeRank":14},"Q942587":{"countryCode":"IR","countyCode":"IR-27","code":"Q942587","name":"کلاله","latitude":"37.37899000","longitude":"55.49300000","wikiDataId":"Q942587","type":"administrative","placeRank":14},"Q2537446":{"countryCode":"IR","countyCode":"IR-27","code":"Q2537446","name":"قرچک","latitude":"36.82203000","longitude":"54.59222000","wikiDataId":"Q2537446","type":"administrative","placeRank":14},"Q765528":{"countryCode":"IR","countyCode":"IR-27","code":"Q765528","name":"تربت حیدریه","latitude":"36.90000000","longitude":"54.16667000","wikiDataId":"Q765528","type":"administrative","placeRank":14},"Q3535986":{"countryCode":"IR","countyCode":"IR-13","code":"Q3535986","name":"ابرومند","latitude":"34.90277778","longitude":"48.32027778","wikiDataId":"Q3535986","type":"administrative","placeRank":14},"Q3662598":{"countryCode":"IR","countyCode":"IR-13","code":"Q3662598","name":"انصارالامام","latitude":"34.85861111","longitude":"48.49083333","wikiDataId":"Q3662598","type":"administrative","placeRank":16},"Q888926":{"countryCode":"IR","countyCode":"IR-13","code":"Q888926","name":"اسدآباد","latitude":"34.78222222","longitude":"48.11833333","wikiDataId":"Q888926","type":"administrative","placeRank":14},"Q4827765":{"countryCode":"IR","countyCode":"IR-13","code":"Q4827765","name":"اورزمان","latitude":"34.26638889","longitude":"48.51222222","wikiDataId":"Q4827765","type":"administrative","placeRank":14},"Q888201":{"countryCode":"IR","countyCode":"IR-13","code":"Q888201","name":"بهار","latitude":"34.90694444","longitude":"48.44138889","wikiDataId":"Q888201","type":"administrative","placeRank":16},"Q4254166":{"countryCode":"IR","countyCode":"IR-13","code":"Q4254166","name":"بندامان","latitude":"34.22388889","longitude":"48.22861111","wikiDataId":"Q4254166","type":"administrative","placeRank":16},"Q3662726":{"countryCode":"IR","countyCode":"IR-13","code":"Q3662726","name":"چشمه قصابان","latitude":"34.85777778","longitude":"48.41888889","wikiDataId":"Q3662726","type":"administrative","placeRank":16},"Q4253917":{"countryCode":"IR","countyCode":"IR-13","code":"Q4253917","name":"چولک قپانوری","latitude":"34.23472222","longitude":"48.30000000","wikiDataId":"Q4253917","type":"administrative","placeRank":16},"Q4252982":{"countryCode":"IR","countyCode":"IR-13","code":"Q4252982","name":"فیازمان","latitude":"34.13111111","longitude":"48.39638889","wikiDataId":"Q4252982","type":"administrative","placeRank":16},"Q28587":{"countryCode":"IR","countyCode":"IR-13","code":"Q28587","name":"همدان","latitude":"34.80000000","longitude":"48.51666667","wikiDataId":"Q28587","type":"administrative","placeRank":14},"Q4277253":{"countryCode":"IR","countyCode":"IR-13","code":"Q4277253","name":"جامیشلو","latitude":"35.24583333","longitude":"48.97666667","wikiDataId":"Q4277253","type":"administrative","placeRank":16},"Q11388201":{"countryCode":"IR","countyCode":"IR-13","code":"Q11388201","name":"کمازان","latitude":"34.15083333","longitude":"48.95333333","wikiDataId":"Q11388201","type":"administrative","placeRank":14},"Q4252467":{"countryCode":"IR","countyCode":"IR-13","code":"Q4252467","name":"لواشان","latitude":"34.25055556","longitude":"48.27416667","wikiDataId":"Q4252467","type":"administrative","placeRank":16},"Q605209":{"countryCode":"IR","countyCode":"IR-13","code":"Q605209","name":"ملایر","latitude":"34.29416667","longitude":"48.82000000","wikiDataId":"Q605209","type":"administrative","placeRank":14},"Q720705":{"countryCode":"IR","countyCode":"IR-13","code":"Q720705","name":"مهاجران","latitude":"35.07388889","longitude":"48.61666667","wikiDataId":"Q720705","type":"administrative","placeRank":14},"Q3536282":{"countryCode":"IR","countyCode":"IR-13","code":"Q3536282","name":"ملهمدره","latitude":"34.83138889","longitude":"48.14527778","wikiDataId":"Q3536282","type":"administrative","placeRank":16},"Q720045":{"countryCode":"IR","countyCode":"IR-13","code":"Q720045","name":"نهاوند","latitude":"34.18833333","longitude":"48.37694444","wikiDataId":"Q720045","type":"administrative","placeRank":14},"Q10859382":{"countryCode":"IR","countyCode":"IR-13","code":"Q10859382","name":"نثار (نهاوند)","latitude":"34.07694444","longitude":"48.46861111","wikiDataId":"Q10859382","type":"administrative","placeRank":16},"Q7141268":{"countryCode":"IR","countyCode":"IR-13","code":"Q7141268","name":"پرورق","latitude":"35.15583333","longitude":"48.76777778","wikiDataId":"Q7141268","type":"administrative","placeRank":16}}