{"Q148062":{"countryCode":"JO","countyCode":"JO-AZ","code":"Q148062","name":"الزرقاء","latitude":"32.07275000","longitude":"36.08796000","wikiDataId":"Q148062","type":"city","placeRank":16},"Q3805":{"countryCode":"JO","countyCode":"JO-AM","code":"Q3805","name":"عَمَّان","latitude":"31.95522000","longitude":"35.94503000","wikiDataId":"Q3805","type":"city","placeRank":15},"Q2305496":{"countryCode":"JO","countyCode":"JO-JA","code":"Q2305496","name":"ساكب","latitude":"32.31372000","longitude":"35.83713000","wikiDataId":"Q2305496","type":"city","placeRank":16},"Q180522":{"countryCode":"JO","countyCode":"JO-AQ","code":"Q180522","name":"العقبة","latitude":"29.52667000","longitude":"35.00778000","wikiDataId":"Q180522","type":"city","placeRank":16},"Q6809601":{"countryCode":"JO","countyCode":"JO-IR","code":"Q6809601","name":"صما","latitude":"32.57102000","longitude":"35.68984000","wikiDataId":"Q6809601","type":"city","placeRank":16},"Q194165":{"countryCode":"JO","countyCode":"JO-IR","code":"Q194165","name":"إربد","latitude":"32.55556000","longitude":"35.85000000","wikiDataId":"Q194165","type":"city","placeRank":16},"Q2361176":{"countryCode":"JO","countyCode":"JO-AZ","code":"Q2361176","name":"الرصيفة","latitude":"32.01778000","longitude":"36.04639000","wikiDataId":"Q2361176","type":"city","placeRank":16},"Q31616":{"countryCode":"JO","countyCode":"JO-MN","code":"Q31616","name":"معان","latitude":"30.19624000","longitude":"35.73405000","wikiDataId":"Q31616","type":"city","placeRank":16},"Q276747":{"countryCode":"JO","countyCode":"JO-MA","code":"Q276747","name":"المفرق","latitude":"32.34289000","longitude":"36.20804000","wikiDataId":"Q276747","type":"city","placeRank":16}}