{"Q269644":{"countryCode":"JP","countyCode":"JP-23","code":"Q269644","name":"愛西市","latitude":"35.17234000","longitude":"136.69478000","wikiDataId":"Q269644","type":"administrative","placeRank":16},"Q451661":{"countryCode":"JP","countyCode":"JP-23","code":"Q451661","name":"あま市","latitude":"35.17174000","longitude":"136.82308000","wikiDataId":"Q451661","type":"administrative","placeRank":16},"Q270806":{"countryCode":"JP","countyCode":"JP-23","code":"Q270806","name":"安城市","latitude":"34.94341000","longitude":"137.07165000","wikiDataId":"Q270806","type":"administrative","placeRank":16},"Q223496":{"countryCode":"JP","countyCode":"JP-23","code":"Q223496","name":"知立市","latitude":"34.99862000","longitude":"137.05000000","wikiDataId":"Q223496","type":"administrative","placeRank":16},"Q495826":{"countryCode":"JP","countyCode":"JP-23","code":"Q495826","name":"知多市","latitude":"34.97048000","longitude":"136.86490000","wikiDataId":"Q495826","type":"administrative","placeRank":16},"Q694930":{"countryCode":"JP","countyCode":"JP-23","code":"Q694930","name":"蒲郡市","latitude":"34.82759000","longitude":"137.22752000","wikiDataId":"Q694930","type":"administrative","placeRank":16},"Q463171":{"countryCode":"JP","countyCode":"JP-23","code":"Q463171","name":"半田市","latitude":"34.89903000","longitude":"136.92660000","wikiDataId":"Q463171","type":"administrative","placeRank":16},"Q495802":{"countryCode":"JP","countyCode":"JP-23","code":"Q495802","name":"碧南市","latitude":"34.87955000","longitude":"136.99155000","wikiDataId":"Q495802","type":"administrative","placeRank":16},"Q270810":{"countryCode":"JP","countyCode":"JP-23","code":"Q270810","name":"一宮市","latitude":"35.31037000","longitude":"136.79237000","wikiDataId":"Q270810","type":"administrative","placeRank":16},"Q389562":{"countryCode":"JP","countyCode":"JP-34","code":"Q389562","name":"稲沢市","latitude":"34.28333000","longitude":"133.18333000","wikiDataId":"Q389562","type":"administrative","placeRank":16},"Q503411":{"countryCode":"JP","countyCode":"JP-23","code":"Q503411","name":"犬山市","latitude":"35.36232000","longitude":"136.98072000","wikiDataId":"Q503411","type":"administrative","placeRank":16},"Q648275":{"countryCode":"JP","countyCode":"JP-23","code":"Q648275","name":"岩倉市","latitude":"35.27927000","longitude":"136.86885000","wikiDataId":"Q648275","type":"administrative","placeRank":16},"Q1203992":{"countryCode":"JP","countyCode":"JP-34","code":"Q1203992","name":"蟹江町","latitude":"34.55808000","longitude":"133.41796000","wikiDataId":"Q1203992","type":"administrative","placeRank":16},"Q389515":{"countryCode":"JP","countyCode":"JP-23","code":"Q389515","name":"刈谷市","latitude":"34.98333000","longitude":"136.98333000","wikiDataId":"Q389515","type":"administrative","placeRank":16},"Q424813":{"countryCode":"JP","countyCode":"JP-28","code":"Q424813","name":"赤穂市","latitude":"34.75136000","longitude":"134.38734000","wikiDataId":"Q424813","type":"administrative","placeRank":16},"Q47084":{"countryCode":"JP","countyCode":"JP-40","code":"Q47084","name":"春日市","latitude":"33.52404000","longitude":"130.45641000","wikiDataId":"Q47084","type":"administrative","placeRank":16},"Q26101":{"countryCode":"JP","countyCode":"JP-23","code":"Q26101","name":"春日井市","latitude":"35.24762000","longitude":"136.97226000","wikiDataId":"Q26101","type":"administrative","placeRank":16},"Q597594":{"countryCode":"JP","countyCode":"JP-44","code":"Q597594","name":"北名古屋市","latitude":"33.41998000","longitude":"131.61837000","wikiDataId":"Q597594","type":"administrative","placeRank":16},"Q502407":{"countryCode":"JP","countyCode":"JP-23","code":"Q502407","name":"清須市","latitude":"35.21325000","longitude":"136.84771000","wikiDataId":"Q502407","type":"administrative","placeRank":16},"Q389537":{"countryCode":"JP","countyCode":"JP-23","code":"Q389537","name":"小牧市","latitude":"35.29103000","longitude":"136.91196000","wikiDataId":"Q389537","type":"administrative","placeRank":16},"Q820496":{"countryCode":"JP","countyCode":"JP-11","code":"Q820496","name":"江南市","latitude":"36.06868000","longitude":"139.51684000","wikiDataId":"Q820496","type":"administrative","placeRank":16},"Q1023781":{"countryCode":"JP","countyCode":"JP-23","code":"Q1023781","name":"みよし市","latitude":"35.09480000","longitude":"137.08870000","wikiDataId":"Q1023781","type":"administrative","placeRank":16},"Q930396":{"countryCode":"JP","countyCode":"JP-20","code":"Q930396","name":"長久手市","latitude":"36.65000000","longitude":"138.18333000","wikiDataId":"Q930396","type":"administrative","placeRank":16},"Q11751":{"countryCode":"JP","countyCode":"JP-47","code":"Q11751","name":"名古屋市","latitude":"26.21667000","longitude":"127.68333000","wikiDataId":"Q11751","type":"administrative","placeRank":16},"Q317844":{"countryCode":"JP","countyCode":"JP-16","code":"Q317844","name":"西尾市","latitude":"36.77957000","longitude":"137.07576000","wikiDataId":"Q317844","type":"administrative","placeRank":16},"Q696777":{"countryCode":"JP","countyCode":"JP-23","code":"Q696777","name":"日進市","latitude":"35.13114000","longitude":"137.03934000","wikiDataId":"Q696777","type":"administrative","placeRank":16},"Q384809":{"countryCode":"JP","countyCode":"JP-32","code":"Q384809","name":"大府市","latitude":"35.13958000","longitude":"132.48811000","wikiDataId":"Q384809","type":"administrative","placeRank":16},"Q242783":{"countryCode":"JP","countyCode":"JP-11","code":"Q242783","name":"岡崎市","latitude":"36.00000000","longitude":"139.55722000","wikiDataId":"Q242783","type":"administrative","placeRank":16},"Q242108":{"countryCode":"JP","countyCode":"JP-01","code":"Q242108","name":"小樽市","latitude":"42.99167000","longitude":"143.20028000","wikiDataId":"Q242108","type":"administrative","placeRank":16},"Q499493":{"countryCode":"JP","countyCode":"JP-23","code":"Q499493","name":"瀬戸市","latitude":"35.22340000","longitude":"137.08414000","wikiDataId":"Q499493","type":"administrative","placeRank":16},"Q694923":{"countryCode":"JP","countyCode":"JP-34","code":"Q694923","name":"新城市","latitude":"34.55543000","longitude":"133.27297000","wikiDataId":"Q694923","type":"administrative","placeRank":16},"Q643929":{"countryCode":"JP","countyCode":"JP-35","code":"Q643929","name":"周南市","latitude":"34.15136000","longitude":"131.82498000","wikiDataId":"Q643929","type":"administrative","placeRank":16},"Q850332":{"countryCode":"JP","countyCode":"JP-40","code":"Q850332","name":"田川市","latitude":"33.63159000","longitude":"130.79966000","wikiDataId":"Q850332","type":"administrative","placeRank":16},"Q501891":{"countryCode":"JP","countyCode":"JP-23","code":"Q501891","name":"田原市","latitude":"34.64140000","longitude":"137.18314000","wikiDataId":"Q501891","type":"administrative","placeRank":16},"Q520428":{"countryCode":"JP","countyCode":"JP-08","code":"Q520428","name":"高萩市","latitude":"36.71667000","longitude":"140.71667000","wikiDataId":"Q520428","type":"administrative","placeRank":16},"Q816734":{"countryCode":"JP","countyCode":"JP-33","code":"Q816734","name":"高浜市","latitude":"34.78333000","longitude":"133.61667000","wikiDataId":"Q816734","type":"administrative","placeRank":16},"Q1203232":{"countryCode":"JP","countyCode":"JP-01","code":"Q1203232","name":"武豊町","latitude":"43.55278000","longitude":"141.90639000","wikiDataId":"Q1203232","type":"administrative","placeRank":16},"Q622620":{"countryCode":"JP","countyCode":"JP-23","code":"Q622620","name":"東海市","latitude":"35.02676000","longitude":"136.89846000","wikiDataId":"Q622620","type":"administrative","placeRank":16},"Q209683":{"countryCode":"JP","countyCode":"JP-11","code":"Q209683","name":"常滑市","latitude":"35.79916000","longitude":"139.46903000","wikiDataId":"Q209683","type":"administrative","placeRank":16},"Q817280":{"countryCode":"JP","countyCode":"JP-23","code":"Q817280","name":"豊明市","latitude":"34.70933000","longitude":"136.93425000","wikiDataId":"Q817280","type":"administrative","placeRank":16},"Q336431":{"countryCode":"JP","countyCode":"JP-23","code":"Q336431","name":"豊橋市","latitude":"34.74050000","longitude":"137.40714000","wikiDataId":"Q336431","type":"administrative","placeRank":16},"Q389495":{"countryCode":"JP","countyCode":"JP-27","code":"Q389495","name":"豊川市","latitude":"34.78244000","longitude":"135.46932000","wikiDataId":"Q389495","type":"administrative","placeRank":16},"Q201117":{"countryCode":"JP","countyCode":"JP-23","code":"Q201117","name":"豊田市","latitude":"35.08700000","longitude":"137.15000000","wikiDataId":"Q201117","type":"administrative","placeRank":16},"Q734416":{"countryCode":"JP","countyCode":"JP-06","code":"Q734416","name":"鶴岡市","latitude":"38.58507000","longitude":"139.80839000","wikiDataId":"Q734416","type":"administrative","placeRank":16},"Q816736":{"countryCode":"JP","countyCode":"JP-23","code":"Q816736","name":"津島市","latitude":"35.17718000","longitude":"136.74168000","wikiDataId":"Q816736","type":"administrative","placeRank":16},"Q332825":{"countryCode":"JP","countyCode":"JP-16","code":"Q332825","name":"弥富市","latitude":"36.56667000","longitude":"137.13333000","wikiDataId":"Q332825","type":"administrative","placeRank":16},"Q212494":{"countryCode":"JP","countyCode":"JP-13","code":"Q212494","name":"昭島市","latitude":"35.70782000","longitude":"139.36418000","wikiDataId":"Q212494","type":"administrative","placeRank":16},"Q17139":{"countryCode":"JP","countyCode":"JP-05","code":"Q17139","name":"秋田市","latitude":"39.71043000","longitude":"140.23207000","wikiDataId":"Q17139","type":"administrative","placeRank":16},"Q695920":{"countryCode":"JP","countyCode":"JP-05","code":"Q695920","name":"大仙市","latitude":"39.53710000","longitude":"140.44139000","wikiDataId":"Q695920","type":"administrative","placeRank":16},"Q496499":{"countryCode":"JP","countyCode":"JP-05","code":"Q496499","name":"鹿角市","latitude":"40.18361000","longitude":"140.78722000","wikiDataId":"Q496499","type":"administrative","placeRank":16},"Q696425":{"countryCode":"JP","countyCode":"JP-04","code":"Q696425","name":"角田市","latitude":"37.98828000","longitude":"140.77903000","wikiDataId":"Q696425","type":"administrative","placeRank":16},"Q646780":{"countryCode":"JP","countyCode":"JP-05","code":"Q646780","name":"潟上市","latitude":"39.87209000","longitude":"140.04910000","wikiDataId":"Q646780","type":"administrative","placeRank":16},"Q851680":{"countryCode":"JP","countyCode":"JP-11","code":"Q851680","name":"加須市","latitude":"36.13670000","longitude":"139.61992000","wikiDataId":"Q851680","type":"administrative","placeRank":16},"Q653545":{"countryCode":"JP","countyCode":"JP-25","code":"Q653545","name":"北秋田市","latitude":"35.16667000","longitude":"135.91667000","wikiDataId":"Q653545","type":"administrative","placeRank":16},"Q847550":{"countryCode":"JP","countyCode":"JP-09","code":"Q847550","name":"にかほ市","latitude":"36.75000000","longitude":"139.70000000","wikiDataId":"Q847550","type":"administrative","placeRank":16},"Q819587":{"countryCode":"JP","countyCode":"JP-05","code":"Q819587","name":"能代市","latitude":"40.20289000","longitude":"140.14486000","wikiDataId":"Q819587","type":"administrative","placeRank":16},"Q384796":{"countryCode":"JP","countyCode":"JP-32","code":"Q384796","name":"大田市","latitude":"35.19025000","longitude":"132.50846000","wikiDataId":"Q384796","type":"administrative","placeRank":16},"Q329996":{"countryCode":"JP","countyCode":"JP-03","code":"Q329996","name":"大館市","latitude":"39.07167000","longitude":"141.71667000","wikiDataId":"Q329996","type":"administrative","placeRank":16},"Q633935":{"countryCode":"JP","countyCode":"JP-05","code":"Q633935","name":"男鹿市","latitude":"39.93793000","longitude":"139.83611000","wikiDataId":"Q633935","type":"administrative","placeRank":16},"Q385375":{"countryCode":"JP","countyCode":"JP-13","code":"Q385375","name":"大町市","latitude":"35.78814000","longitude":"139.27501000","wikiDataId":"Q385375","type":"administrative","placeRank":16},"Q846877":{"countryCode":"JP","countyCode":"JP-05","code":"Q846877","name":"仙北市","latitude":"39.75709000","longitude":"140.66998000","wikiDataId":"Q846877","type":"administrative","placeRank":16},"Q385779":{"countryCode":"JP","countyCode":"JP-06","code":"Q385779","name":"天童市","latitude":"38.35819000","longitude":"140.39652000","wikiDataId":"Q385779","type":"administrative","placeRank":16},"Q200578":{"countryCode":"JP","countyCode":"JP-14","code":"Q200578","name":"横須賀市","latitude":"35.24985000","longitude":"139.66033000","wikiDataId":"Q200578","type":"administrative","placeRank":16},"Q496479":{"countryCode":"JP","countyCode":"JP-05","code":"Q496479","name":"横手市","latitude":"39.28369000","longitude":"140.54432000","wikiDataId":"Q496479","type":"administrative","placeRank":16},"Q602903":{"countryCode":"JP","countyCode":"JP-05","code":"Q602903","name":"由利本荘市","latitude":"39.29336000","longitude":"140.16498000","wikiDataId":"Q602903","type":"administrative","placeRank":16},"Q633272":{"countryCode":"JP","countyCode":"JP-05","code":"Q633272","name":"湯沢市","latitude":"39.03658000","longitude":"140.54267000","wikiDataId":"Q633272","type":"administrative","placeRank":16},"Q146790":{"countryCode":"JP","countyCode":"JP-15","code":"Q146790","name":"青森市","latitude":"37.00059000","longitude":"138.22590000","wikiDataId":"Q146790","type":"administrative","placeRank":16},"Q496702":{"countryCode":"JP","countyCode":"JP-02","code":"Q496702","name":"五所川原市","latitude":"40.91657000","longitude":"140.46998000","wikiDataId":"Q496702","type":"administrative","placeRank":16},"Q765884":{"countryCode":"JP","countyCode":"JP-03","code":"Q765884","name":"八幡平市","latitude":"40.02390000","longitude":"140.99113000","wikiDataId":"Q765884","type":"administrative","placeRank":16},"Q695930":{"countryCode":"JP","countyCode":"JP-32","code":"Q695930","name":"平川市","latitude":"35.43333000","longitude":"132.81667000","wikiDataId":"Q695930","type":"administrative","placeRank":16},"Q194087":{"countryCode":"JP","countyCode":"JP-34","code":"Q194087","name":"弘前市","latitude":"34.40000000","longitude":"132.45000000","wikiDataId":"Q194087","type":"administrative","placeRank":16},"Q496412":{"countryCode":"JP","countyCode":"JP-02","code":"Q496412","name":"黒石市","latitude":"40.61709000","longitude":"140.70467000","wikiDataId":"Q496412","type":"administrative","placeRank":16},"Q496401":{"countryCode":"JP","countyCode":"JP-02","code":"Q496401","name":"三沢市","latitude":"40.74647000","longitude":"141.38124000","wikiDataId":"Q496401","type":"administrative","placeRank":16},"Q641992":{"countryCode":"JP","countyCode":"JP-02","code":"Q641992","name":"むつ市","latitude":"41.29090000","longitude":"141.03327000","wikiDataId":"Q641992","type":"administrative","placeRank":16},"Q646818":{"countryCode":"JP","countyCode":"JP-02","code":"Q646818","name":"十和田市","latitude":"40.56736000","longitude":"141.05794000","wikiDataId":"Q646818","type":"administrative","placeRank":16},"Q372517":{"countryCode":"JP","countyCode":"JP-44","code":"Q372517","name":"つがる市","latitude":"33.27668000","longitude":"131.15628000","wikiDataId":"Q372517","type":"administrative","placeRank":16},"Q305640":{"countryCode":"JP","countyCode":"JP-01","code":"Q305640","name":"網走市","latitude":"43.98565000","longitude":"144.21051000","wikiDataId":"Q305640","type":"administrative","placeRank":16},"Q243859":{"countryCode":"JP","countyCode":"JP-12","code":"Q243859","name":"我孫子市","latitude":"35.86947000","longitude":"140.06510000","wikiDataId":"Q243859","type":"administrative","placeRank":16},"Q637868":{"countryCode":"JP","countyCode":"JP-12","code":"Q637868","name":"旭市","latitude":"35.73443000","longitude":"140.65549000","wikiDataId":"Q637868","type":"administrative","placeRank":16},"Q170616":{"countryCode":"JP","countyCode":"JP-12","code":"Q170616","name":"千葉市","latitude":"35.60000000","longitude":"140.11667000","wikiDataId":"Q170616","type":"administrative","placeRank":16},"Q694317":{"countryCode":"JP","countyCode":"JP-12","code":"Q694317","name":"銚子市","latitude":"35.74303000","longitude":"140.77552000","wikiDataId":"Q694317","type":"administrative","placeRank":16},"Q661038":{"countryCode":"JP","countyCode":"JP-08","code":"Q661038","name":"福山市","latitude":"36.46667000","longitude":"140.56667000","wikiDataId":"Q661038","type":"administrative","placeRank":16},"Q498023":{"countryCode":"JP","countyCode":"JP-12","code":"Q498023","name":"富津市","latitude":"35.31080000","longitude":"139.81877000","wikiDataId":"Q498023","type":"administrative","placeRank":16},"Q847565":{"countryCode":"JP","countyCode":"JP-11","code":"Q847565","name":"羽生市","latitude":"36.17251000","longitude":"139.55338000","wikiDataId":"Q847565","type":"administrative","placeRank":16},"Q271417":{"countryCode":"JP","countyCode":"JP-43","code":"Q271417","name":"船橋市","latitude":"32.45993000","longitude":"130.16713000","wikiDataId":"Q271417","type":"administrative","placeRank":16},"Q19712":{"countryCode":"JP","countyCode":"JP-46","code":"Q19712","name":"指宿市","latitude":"31.22962000","longitude":"130.58060000","wikiDataId":"Q19712","type":"administrative","placeRank":16},"Q207881":{"countryCode":"JP","countyCode":"JP-12","code":"Q207881","name":"市原市","latitude":"35.42484000","longitude":"140.13725000","wikiDataId":"Q207881","type":"administrative","placeRank":16},"Q209785":{"countryCode":"JP","countyCode":"JP-12","code":"Q209785","name":"市川市","latitude":"35.71865000","longitude":"139.93294000","wikiDataId":"Q209785","type":"administrative","placeRank":16},"Q637901":{"countryCode":"JP","countyCode":"JP-12","code":"Q637901","name":"印西市","latitude":"35.81207000","longitude":"140.14098000","wikiDataId":"Q637901","type":"administrative","placeRank":16},"Q840834":{"countryCode":"JP","countyCode":"JP-12","code":"Q840834","name":"いすみ市","latitude":"35.27777000","longitude":"140.34335000","wikiDataId":"Q840834","type":"administrative","placeRank":16},"Q387365":{"countryCode":"JP","countyCode":"JP-12","code":"Q387365","name":"鎌ケ谷市","latitude":"35.77289000","longitude":"139.99883000","wikiDataId":"Q387365","type":"administrative","placeRank":16},"Q857293":{"countryCode":"JP","countyCode":"JP-33","code":"Q857293","name":"加茂市","latitude":"34.53745000","longitude":"133.58967000","wikiDataId":"Q857293","type":"administrative","placeRank":16},"Q387211":{"countryCode":"JP","countyCode":"JP-36","code":"Q387211","name":"鴨川市","latitude":"34.06803000","longitude":"134.35033000","wikiDataId":"Q387211","type":"administrative","placeRank":16},"Q319743":{"countryCode":"JP","countyCode":"JP-12","code":"Q319743","name":"柏市","latitude":"35.86017000","longitude":"139.99386000","wikiDataId":"Q319743","type":"administrative","placeRank":16},"Q858357":{"countryCode":"JP","countyCode":"JP-12","code":"Q858357","name":"香取市","latitude":"35.88333000","longitude":"140.51667000","wikiDataId":"Q858357","type":"administrative","placeRank":16},"Q696418":{"countryCode":"JP","countyCode":"JP-12","code":"Q696418","name":"勝浦市","latitude":"35.14621000","longitude":"140.31507000","wikiDataId":"Q696418","type":"administrative","placeRank":16},"Q974969":{"countryCode":"JP","countyCode":"JP-36","code":"Q974969","name":"勝浦町","latitude":"33.91380000","longitude":"134.42641000","wikiDataId":"Q974969","type":"administrative","placeRank":16},"Q637928":{"countryCode":"JP","countyCode":"JP-12","code":"Q637928","name":"君津市","latitude":"35.35043000","longitude":"139.87029000","wikiDataId":"Q637928","type":"administrative","placeRank":16},"Q335427":{"countryCode":"JP","countyCode":"JP-27","code":"Q335427","name":"木更津市","latitude":"34.46667000","longitude":"135.36667000","wikiDataId":"Q335427","type":"administrative","placeRank":16},"Q320943":{"countryCode":"JP","countyCode":"JP-32","code":"Q320943","name":"松戸市","latitude":"35.48333000","longitude":"133.05000000","wikiDataId":"Q320943","type":"administrative","placeRank":16},"Q873521":{"countryCode":"JP","countyCode":"JP-12","code":"Q873521","name":"南房総市","latitude":"35.03657000","longitude":"139.92847000","wikiDataId":"Q873521","type":"administrative","placeRank":16},"Q502486":{"countryCode":"JP","countyCode":"JP-12","code":"Q502486","name":"茂原市","latitude":"35.44981000","longitude":"140.30163000","wikiDataId":"Q502486","type":"administrative","placeRank":16},"Q861246":{"countryCode":"JP","countyCode":"JP-26","code":"Q861246","name":"長岡京市","latitude":"34.92840000","longitude":"135.67881000","wikiDataId":"Q861246","type":"administrative","placeRank":16},"Q328625":{"countryCode":"JP","countyCode":"JP-42","code":"Q328625","name":"流山市","latitude":"32.75000000","longitude":"129.88333000","wikiDataId":"Q328625","type":"administrative","placeRank":16},"Q318047":{"countryCode":"JP","countyCode":"JP-12","code":"Q318047","name":"習志野市","latitude":"35.68091000","longitude":"140.03418000","wikiDataId":"Q318047","type":"administrative","placeRank":16},"Q273798":{"countryCode":"JP","countyCode":"JP-12","code":"Q273798","name":"成田市","latitude":"35.81547000","longitude":"140.35757000","wikiDataId":"Q273798","type":"administrative","placeRank":16},"Q460812":{"countryCode":"JP","countyCode":"JP-36","code":"Q460812","name":"鳴門市","latitude":"34.19933000","longitude":"134.60932000","wikiDataId":"Q460812","type":"administrative","placeRank":16},"Q428989":{"countryCode":"JP","countyCode":"JP-01","code":"Q428989","name":"登別市","latitude":"42.46565000","longitude":"141.07578000","wikiDataId":"Q428989","type":"administrative","placeRank":16},"Q328619":{"countryCode":"JP","countyCode":"JP-12","code":"Q328619","name":"野田市","latitude":"35.98516000","longitude":"139.86215000","wikiDataId":"Q328619","type":"administrative","placeRank":16},"Q230843":{"countryCode":"JP","countyCode":"JP-14","code":"Q230843","name":"逗子市","latitude":"35.29900000","longitude":"139.59125000","wikiDataId":"Q230843","type":"administrative","placeRank":16},"Q1203251":{"countryCode":"JP","countyCode":"JP-08","code":"Q1203251","name":"大網白里市","latitude":"36.31409000","longitude":"140.58389000","wikiDataId":"Q1203251","type":"administrative","placeRank":16},"Q498011":{"countryCode":"JP","countyCode":"JP-12","code":"Q498011","name":"佐倉市","latitude":"35.70619000","longitude":"140.21326000","wikiDataId":"Q498011","type":"administrative","placeRank":16},"Q873528":{"countryCode":"JP","countyCode":"JP-12","code":"Q873528","name":"山武市","latitude":"35.62397000","longitude":"140.42079000","wikiDataId":"Q873528","type":"administrative","placeRank":16},"Q1345322":{"countryCode":"JP","countyCode":"JP-11","code":"Q1345322","name":"白岡市","latitude":"36.01667000","longitude":"139.66667000","wikiDataId":"Q1345322","type":"administrative","placeRank":16},"Q519187":{"countryCode":"JP","countyCode":"JP-12","code":"Q519187","name":"白井市","latitude":"35.80164000","longitude":"140.06005000","wikiDataId":"Q519187","type":"administrative","placeRank":16},"Q823489":{"countryCode":"JP","countyCode":"JP-15","code":"Q823489","name":"白石市","latitude":"37.76354000","longitude":"139.02199000","wikiDataId":"Q823489","type":"administrative","placeRank":16},"Q646847":{"countryCode":"JP","countyCode":"JP-12","code":"Q646847","name":"袖ケ浦市","latitude":"35.41642000","longitude":"140.01771000","wikiDataId":"Q646847","type":"administrative","placeRank":16},"Q858367":{"countryCode":"JP","countyCode":"JP-12","code":"Q858367","name":"匝瑳市","latitude":"35.69983000","longitude":"140.55366000","wikiDataId":"Q858367","type":"administrative","placeRank":16},"Q646755":{"countryCode":"JP","countyCode":"JP-20","code":"Q646755","name":"館山市","latitude":"35.98426000","longitude":"137.99721000","wikiDataId":"Q646755","type":"administrative","placeRank":16},"Q637913":{"countryCode":"JP","countyCode":"JP-12","code":"Q637913","name":"東金市","latitude":"35.56517000","longitude":"140.36707000","wikiDataId":"Q637913","type":"administrative","placeRank":16},"Q692857":{"countryCode":"JP","countyCode":"JP-12","code":"Q692857","name":"富里市","latitude":"35.72024000","longitude":"140.34080000","wikiDataId":"Q692857","type":"administrative","placeRank":16},"Q319729":{"countryCode":"JP","countyCode":"JP-12","code":"Q319729","name":"浦安市","latitude":"35.64250000","longitude":"139.90192000","wikiDataId":"Q319729","type":"administrative","placeRank":16},"Q638296":{"countryCode":"JP","countyCode":"JP-12","code":"Q638296","name":"八街市","latitude":"35.64241000","longitude":"140.29686000","wikiDataId":"Q638296","type":"administrative","placeRank":16},"Q328651":{"countryCode":"JP","countyCode":"JP-12","code":"Q328651","name":"八千代市","latitude":"35.73921000","longitude":"140.10502000","wikiDataId":"Q328651","type":"administrative","placeRank":16},"Q429373":{"countryCode":"JP","countyCode":"JP-25","code":"Q429373","name":"四街道市","latitude":"35.11626000","longitude":"136.19768000","wikiDataId":"Q429373","type":"administrative","placeRank":16},"Q461020":{"countryCode":"JP","countyCode":"JP-09","code":"Q461020","name":"今治市","latitude":"36.71667000","longitude":"139.68333000","wikiDataId":"Q461020","type":"administrative","placeRank":16},"Q838678":{"countryCode":"JP","countyCode":"JP-38","code":"Q838678","name":"伊予市","latitude":"33.68493000","longitude":"132.68909000","wikiDataId":"Q838678","type":"administrative","placeRank":16},"Q1351015":{"countryCode":"JP","countyCode":"JP-38","code":"Q1351015","name":"鬼北町","latitude":"33.25592000","longitude":"132.68343000","wikiDataId":"Q1351015","type":"administrative","placeRank":16},"Q1350953":{"countryCode":"JP","countyCode":"JP-09","code":"Q1350953","name":"松前町","latitude":"36.46667000","longitude":"140.10000000","wikiDataId":"Q1350953","type":"administrative","placeRank":16},"Q200022":{"countryCode":"JP","countyCode":"JP-38","code":"Q200022","name":"松山市","latitude":"33.83568000","longitude":"132.76224000","wikiDataId":"Q200022","type":"administrative","placeRank":16},"Q386628":{"countryCode":"JP","countyCode":"JP-38","code":"Q386628","name":"新居浜市","latitude":"33.90670000","longitude":"133.33250000","wikiDataId":"Q386628","type":"administrative","placeRank":16},"Q386655":{"countryCode":"JP","countyCode":"JP-38","code":"Q386655","name":"大洲市","latitude":"33.50619000","longitude":"132.54430000","wikiDataId":"Q386655","type":"administrative","placeRank":16},"Q633945":{"countryCode":"JP","countyCode":"JP-38","code":"Q633945","name":"西条市","latitude":"33.86100000","longitude":"133.10832000","wikiDataId":"Q633945","type":"administrative","placeRank":16},"Q824009":{"countryCode":"JP","countyCode":"JP-11","code":"Q824009","name":"狭山市","latitude":"35.85295000","longitude":"139.41212000","wikiDataId":"Q824009","type":"administrative","placeRank":16},"Q838666":{"countryCode":"JP","countyCode":"JP-38","code":"Q838666","name":"四国中央市","latitude":"33.93538000","longitude":"133.53622000","wikiDataId":"Q838666","type":"administrative","placeRank":16},"Q132412":{"countryCode":"JP","countyCode":"JP-38","code":"Q132412","name":"東温市","latitude":"33.79099000","longitude":"132.87234000","wikiDataId":"Q132412","type":"administrative","placeRank":16},"Q845857":{"countryCode":"JP","countyCode":"JP-38","code":"Q845857","name":"宇和島市","latitude":"33.22325000","longitude":"132.56069000","wikiDataId":"Q845857","type":"administrative","placeRank":16},"Q200603":{"countryCode":"JP","countyCode":"JP-01","code":"Q200603","name":"八幡浜市","latitude":"43.20389000","longitude":"140.77028000","wikiDataId":"Q200603","type":"administrative","placeRank":16},"Q720402":{"countryCode":"JP","countyCode":"JP-28","code":"Q720402","name":"朝来市","latitude":"35.26249000","longitude":"134.82527000","wikiDataId":"Q720402","type":"administrative","placeRank":16},"Q538623":{"countryCode":"JP","countyCode":"JP-18","code":"Q538623","name":"あわら市","latitude":"36.22777000","longitude":"136.25154000","wikiDataId":"Q538623","type":"administrative","placeRank":16},"Q877941":{"countryCode":"JP","countyCode":"JP-18","code":"Q877941","name":"越前市","latitude":"35.88946000","longitude":"136.17723000","wikiDataId":"Q877941","type":"administrative","placeRank":16},"Q201618":{"countryCode":"JP","countyCode":"JP-18","code":"Q201618","name":"福井市","latitude":"36.06667000","longitude":"136.21667000","wikiDataId":"Q201618","type":"administrative","placeRank":16},"Q847543":{"countryCode":"JP","countyCode":"JP-18","code":"Q847543","name":"勝山市","latitude":"36.08440000","longitude":"136.52178000","wikiDataId":"Q847543","type":"administrative","placeRank":16},"Q31238":{"countryCode":"JP","countyCode":"JP-28","code":"Q31238","name":"三木市","latitude":"34.83553000","longitude":"135.05822000","wikiDataId":"Q31238","type":"administrative","placeRank":16},"Q861296":{"countryCode":"JP","countyCode":"JP-40","code":"Q861296","name":"直方市","latitude":"33.75116000","longitude":"130.74592000","wikiDataId":"Q861296","type":"administrative","placeRank":16},"Q41773":{"countryCode":"JP","countyCode":"JP-18","code":"Q41773","name":"小浜市","latitude":"35.45000000","longitude":"135.70000000","wikiDataId":"Q41773","type":"administrative","placeRank":16},"Q385684":{"countryCode":"JP","countyCode":"JP-35","code":"Q385684","name":"大野市","latitude":"34.00139000","longitude":"131.18361000","wikiDataId":"Q385684","type":"administrative","placeRank":16},"Q385623":{"countryCode":"JP","countyCode":"JP-34","code":"Q385623","name":"大牟田市","latitude":"34.28333000","longitude":"132.26667000","wikiDataId":"Q385623","type":"administrative","placeRank":16},"Q847598":{"countryCode":"JP","countyCode":"JP-18","code":"Q847598","name":"鯖江市","latitude":"35.95932000","longitude":"136.21835000","wikiDataId":"Q847598","type":"administrative","placeRank":16},"Q990342":{"countryCode":"JP","countyCode":"JP-37","code":"Q990342","name":"坂井市","latitude":"34.32403000","longitude":"133.89222000","wikiDataId":"Q990342","type":"administrative","placeRank":16},"Q850508":{"countryCode":"JP","countyCode":"JP-44","code":"Q850508","name":"竹田市","latitude":"32.96667000","longitude":"131.40000000","wikiDataId":"Q850508","type":"administrative","placeRank":16},"Q747362":{"countryCode":"JP","countyCode":"JP-19","code":"Q747362","name":"都留市","latitude":"35.53660000","longitude":"138.91489000","wikiDataId":"Q747362","type":"administrative","placeRank":16},"Q720625":{"countryCode":"JP","countyCode":"JP-40","code":"Q720625","name":"朝倉市","latitude":"33.41684000","longitude":"130.74167000","wikiDataId":"Q720625","type":"administrative","placeRank":16},"Q633601":{"countryCode":"JP","countyCode":"JP-47","code":"Q633601","name":"豊前市","latitude":"26.30948000","longitude":"127.77024000","wikiDataId":"Q633601","type":"administrative","placeRank":16},"Q601137":{"countryCode":"JP","countyCode":"JP-40","code":"Q601137","name":"筑後市","latitude":"33.20748000","longitude":"130.49122000","wikiDataId":"Q601137","type":"administrative","placeRank":16},"Q844140":{"countryCode":"JP","countyCode":"JP-40","code":"Q844140","name":"筑紫野市","latitude":"33.49631000","longitude":"130.51560000","wikiDataId":"Q844140","type":"administrative","placeRank":16},"Q728218":{"countryCode":"JP","countyCode":"JP-40","code":"Q728218","name":"太宰府市","latitude":"33.50000000","longitude":"130.53333000","wikiDataId":"Q728218","type":"administrative","placeRank":16},"Q26600":{"countryCode":"JP","countyCode":"JP-28","code":"Q26600","name":"福岡市","latitude":"34.25765000","longitude":"134.71535000","wikiDataId":"Q26600","type":"administrative","placeRank":16},"Q825700":{"countryCode":"JP","countyCode":"JP-40","code":"Q825700","name":"福津市","latitude":"33.77982000","longitude":"130.49804000","wikiDataId":"Q825700","type":"administrative","placeRank":16},"Q328605":{"countryCode":"JP","countyCode":"JP-27","code":"Q328605","name":"飯塚市","latitude":"34.82208000","longitude":"135.42980000","wikiDataId":"Q328605","type":"administrative","placeRank":16},"Q860662":{"countryCode":"JP","countyCode":"JP-13","code":"Q860662","name":"糸満市","latitude":"35.72528000","longitude":"139.21778000","wikiDataId":"Q860662","type":"administrative","placeRank":16},"Q376901":{"countryCode":"JP","countyCode":"JP-40","code":"Q376901","name":"嘉麻市","latitude":"33.53663000","longitude":"130.74028000","wikiDataId":"Q376901","type":"administrative","placeRank":16},"Q191130":{"countryCode":"JP","countyCode":"JP-17","code":"Q191130","name":"金沢市","latitude":"36.51919000","longitude":"136.70836000","wikiDataId":"Q191130","type":"administrative","placeRank":16},"Q188806":{"countryCode":"JP","countyCode":"JP-40","code":"Q188806","name":"北九州市","latitude":"33.85181000","longitude":"130.85034000","wikiDataId":"Q188806","type":"administrative","placeRank":16},"Q213278":{"countryCode":"JP","countyCode":"JP-13","code":"Q213278","name":"小平市","latitude":"35.72738000","longitude":"139.48173000","wikiDataId":"Q213278","type":"administrative","placeRank":16},"Q768356":{"countryCode":"JP","countyCode":"JP-40","code":"Q768356","name":"古賀市","latitude":"33.72139000","longitude":"130.49947000","wikiDataId":"Q768356","type":"administrative","placeRank":16},"Q320934":{"countryCode":"JP","countyCode":"JP-40","code":"Q320934","name":"久留米市","latitude":"33.30358000","longitude":"130.56549000","wikiDataId":"Q320934","type":"administrative","placeRank":16},"Q990465":{"countryCode":"JP","countyCode":"JP-46","code":"Q990465","name":"みやま市","latitude":"30.42690000","longitude":"130.57151000","wikiDataId":"Q990465","type":"administrative","placeRank":16},"Q990431":{"countryCode":"JP","countyCode":"JP-45","code":"Q990431","name":"宮若市","latitude":"31.91667000","longitude":"131.41667000","wikiDataId":"Q990431","type":"administrative","placeRank":16},"Q819603":{"countryCode":"JP","countyCode":"JP-40","code":"Q819603","name":"宗像市","latitude":"33.80000000","longitude":"130.55000000","wikiDataId":"Q819603","type":"administrative","placeRank":16},"Q847601":{"countryCode":"JP","countyCode":"JP-40","code":"Q847601","name":"中間市","latitude":"33.82081000","longitude":"130.70862000","wikiDataId":"Q847601","type":"administrative","placeRank":16},"Q290326":{"countryCode":"JP","countyCode":"JP-19","code":"Q290326","name":"韮崎市","latitude":"35.71772000","longitude":"138.41200000","wikiDataId":"Q290326","type":"administrative","placeRank":16},"Q683248":{"countryCode":"JP","countyCode":"JP-35","code":"Q683248","name":"小郡市","latitude":"34.10000000","longitude":"131.40000000","wikiDataId":"Q683248","type":"administrative","placeRank":16},"Q199609":{"countryCode":"JP","countyCode":"JP-44","code":"Q199609","name":"大分市","latitude":"33.17980000","longitude":"131.64085000","wikiDataId":"Q199609","type":"administrative","placeRank":16},"Q385248":{"countryCode":"JP","countyCode":"JP-40","code":"Q385248","name":"大川市","latitude":"33.20736000","longitude":"130.38253000","wikiDataId":"Q385248","type":"administrative","placeRank":16},"Q385591":{"countryCode":"JP","countyCode":"JP-42","code":"Q385591","name":"大村市","latitude":"32.93978000","longitude":"129.99297000","wikiDataId":"Q385591","type":"administrative","placeRank":16},"Q1205554":{"countryCode":"JP","countyCode":"JP-40","code":"Q1205554","name":"遠賀町","latitude":"33.85699000","longitude":"130.63626000","wikiDataId":"Q1205554","type":"administrative","placeRank":16},"Q385762":{"countryCode":"JP","countyCode":"JP-40","code":"Q385762","name":"大野城市","latitude":"33.51302000","longitude":"130.47925000","wikiDataId":"Q385762","type":"administrative","placeRank":16},"Q1206130":{"countryCode":"JP","countyCode":"JP-28","code":"Q1206130","name":"篠栗町","latitude":"35.06667000","longitude":"135.21667000","wikiDataId":"Q1206130","type":"administrative","placeRank":16},"Q193638":{"countryCode":"JP","countyCode":"JP-13","code":"Q193638","name":"渋谷区","latitude":"35.66404000","longitude":"139.69821000","wikiDataId":"Q193638","type":"administrative","placeRank":16},"Q823526":{"countryCode":"JP","countyCode":"JP-30","code":"Q823526","name":"新宮市","latitude":"33.76663000","longitude":"135.85863000","wikiDataId":"Q823526","type":"administrative","placeRank":16},"Q653355":{"countryCode":"JP","countyCode":"JP-04","code":"Q653355","name":"多賀城市","latitude":"38.29535000","longitude":"140.99910000","wikiDataId":"Q653355","type":"administrative","placeRank":16},"Q850373":{"countryCode":"JP","countyCode":"JP-40","code":"Q850373","name":"うきは市","latitude":"33.56826000","longitude":"130.51009000","wikiDataId":"Q850373","type":"administrative","placeRank":16},"Q850492":{"countryCode":"JP","countyCode":"JP-04","code":"Q850492","name":"八女市","latitude":"38.42738000","longitude":"141.21487000","wikiDataId":"Q850492","type":"administrative","placeRank":16},"Q585630":{"countryCode":"JP","countyCode":"JP-40","code":"Q585630","name":"柳川市","latitude":"33.14932000","longitude":"130.40725000","wikiDataId":"Q585630","type":"administrative","placeRank":16},"Q592500":{"countryCode":"JP","countyCode":"JP-36","code":"Q592500","name":"吉野川市","latitude":"34.03705000","longitude":"134.28354000","wikiDataId":"Q592500","type":"administrative","placeRank":16},"Q851668":{"countryCode":"JP","countyCode":"JP-40","code":"Q851668","name":"行橋市","latitude":"33.71404000","longitude":"130.97108000","wikiDataId":"Q851668","type":"administrative","placeRank":16},"Q237699":{"countryCode":"JP","countyCode":"JP-01","code":"Q237699","name":"会津若松市","latitude":"43.55139000","longitude":"142.05306000","wikiDataId":"Q237699","type":"administrative","placeRank":16},"Q858423":{"countryCode":"JP","countyCode":"JP-01","code":"Q858423","name":"伊達市","latitude":"42.49337000","longitude":"140.89142000","wikiDataId":"Q858423","type":"administrative","placeRank":16},"Q161176":{"countryCode":"JP","countyCode":"JP-07","code":"Q161176","name":"福島市","latitude":"37.78643000","longitude":"140.38849000","wikiDataId":"Q161176","type":"administrative","placeRank":16},"Q861292":{"countryCode":"JP","countyCode":"JP-35","code":"Q861292","name":"人吉市","latitude":"34.07287000","longitude":"131.56808000","wikiDataId":"Q861292","type":"administrative","placeRank":16},"Q669633":{"countryCode":"JP","countyCode":"JP-07","code":"Q669633","name":"猪苗代町","latitude":"37.56667000","longitude":"140.11667000","wikiDataId":"Q669633","type":"administrative","placeRank":16},"Q1205335":{"countryCode":"JP","countyCode":"JP-07","code":"Q1205335","name":"石川町","latitude":"37.15000000","longitude":"140.45000000","wikiDataId":"Q1205335","type":"administrative","placeRank":16},"Q579623":{"countryCode":"JP","countyCode":"JP-30","code":"Q579623","name":"岩出市","latitude":"34.28089000","longitude":"135.30560000","wikiDataId":"Q579623","type":"administrative","placeRank":16},"Q274384":{"countryCode":"JP","countyCode":"JP-07","code":"Q274384","name":"いわき市","latitude":"37.08333000","longitude":"140.83333000","wikiDataId":"Q274384","type":"administrative","placeRank":16},"Q695917":{"countryCode":"JP","countyCode":"JP-03","code":"Q695917","name":"北上市","latitude":"39.30765000","longitude":"141.00795000","wikiDataId":"Q695917","type":"administrative","placeRank":16},"Q496506":{"countryCode":"JP","countyCode":"JP-07","code":"Q496506","name":"喜多方市","latitude":"37.68333000","longitude":"139.90000000","wikiDataId":"Q496506","type":"administrative","placeRank":16},"Q264206":{"countryCode":"JP","countyCode":"JP-07","code":"Q264206","name":"郡山市","latitude":"37.41277000","longitude":"140.29507000","wikiDataId":"Q264206","type":"administrative","placeRank":16},"Q820760":{"countryCode":"JP","countyCode":"JP-34","code":"Q820760","name":"三原市","latitude":"34.45817000","longitude":"133.00395000","wikiDataId":"Q820760","type":"administrative","placeRank":16},"Q642094":{"countryCode":"JP","countyCode":"JP-07","code":"Q642094","name":"南相馬市","latitude":"37.62908000","longitude":"140.97868000","wikiDataId":"Q642094","type":"administrative","placeRank":16},"Q990376":{"countryCode":"JP","countyCode":"JP-42","code":"Q990376","name":"南島原市","latitude":"32.67565000","longitude":"130.25695000","wikiDataId":"Q990376","type":"administrative","placeRank":16},"Q867106":{"countryCode":"JP","countyCode":"JP-07","code":"Q867106","name":"本宮市","latitude":"37.51218000","longitude":"140.39841000","wikiDataId":"Q867106","type":"administrative","placeRank":16},"Q1023937":{"countryCode":"JP","countyCode":"JP-07","code":"Q1023937","name":"浪江町","latitude":"37.48333000","longitude":"141.00000000","wikiDataId":"Q1023937","type":"administrative","placeRank":16},"Q860669":{"countryCode":"JP","countyCode":"JP-45","code":"Q860669","name":"日南市","latitude":"31.63737000","longitude":"131.33409000","wikiDataId":"Q860669","type":"administrative","placeRank":16},"Q685491":{"countryCode":"JP","countyCode":"JP-15","code":"Q685491","name":"二本松市","latitude":"37.88637000","longitude":"139.00589000","wikiDataId":"Q685491","type":"administrative","placeRank":16},"Q750587":{"countryCode":"JP","countyCode":"JP-07","code":"Q750587","name":"白河市","latitude":"37.12225000","longitude":"140.24963000","wikiDataId":"Q750587","type":"administrative","placeRank":16},"Q696456":{"countryCode":"JP","countyCode":"JP-07","code":"Q696456","name":"相馬市","latitude":"37.78193000","longitude":"140.87321000","wikiDataId":"Q696456","type":"administrative","placeRank":16},"Q819664":{"countryCode":"JP","countyCode":"JP-07","code":"Q819664","name":"須賀川市","latitude":"37.29342000","longitude":"140.31691000","wikiDataId":"Q819664","type":"administrative","placeRank":16},"Q734400":{"countryCode":"JP","countyCode":"JP-26","code":"Q734400","name":"田村市","latitude":"34.82242000","longitude":"135.76604000","wikiDataId":"Q734400","type":"administrative","placeRank":16},"Q819653":{"countryCode":"JP","countyCode":"JP-21","code":"Q819653","name":"恵那市","latitude":"35.44722000","longitude":"137.41810000","wikiDataId":"Q819653","type":"administrative","placeRank":16},"Q819639":{"countryCode":"JP","countyCode":"JP-21","code":"Q819639","name":"下呂市","latitude":"35.75000000","longitude":"137.25000000","wikiDataId":"Q819639","type":"administrative","placeRank":16},"Q45798":{"countryCode":"JP","countyCode":"JP-21","code":"Q45798","name":"岐阜市","latitude":"35.44826000","longitude":"136.76470000","wikiDataId":"Q45798","type":"administrative","placeRank":16},"Q1203575":{"countryCode":"JP","countyCode":"JP-21","code":"Q1203575","name":"神戸町","latitude":"35.41667000","longitude":"136.60000000","wikiDataId":"Q1203575","type":"administrative","placeRank":16},"Q857243":{"countryCode":"JP","countyCode":"JP-21","code":"Q857243","name":"郡上市","latitude":"35.83298000","longitude":"136.94561000","wikiDataId":"Q857243","type":"administrative","placeRank":16},"Q819595":{"countryCode":"JP","countyCode":"JP-21","code":"Q819595","name":"羽島市","latitude":"35.30740000","longitude":"136.70161000","wikiDataId":"Q819595","type":"administrative","placeRank":16},"Q847319":{"countryCode":"JP","countyCode":"JP-21","code":"Q847319","name":"飛騨市","latitude":"36.33272000","longitude":"137.20568000","wikiDataId":"Q847319","type":"administrative","placeRank":16},"Q844056":{"countryCode":"JP","countyCode":"JP-27","code":"Q844056","name":"海津市","latitude":"34.45000000","longitude":"135.35000000","wikiDataId":"Q844056","type":"administrative","placeRank":16},"Q641491":{"countryCode":"JP","countyCode":"JP-21","code":"Q641491","name":"各務原市","latitude":"35.40283000","longitude":"136.87829000","wikiDataId":"Q641491","type":"administrative","placeRank":16},"Q853805":{"countryCode":"JP","countyCode":"JP-21","code":"Q853805","name":"可児市","latitude":"35.40589000","longitude":"137.06602000","wikiDataId":"Q853805","type":"administrative","placeRank":16},"Q1203551":{"countryCode":"JP","countyCode":"JP-21","code":"Q1203551","name":"笠松町","latitude":"35.36667000","longitude":"136.76667000","wikiDataId":"Q1203551","type":"administrative","placeRank":16},"Q853835":{"countryCode":"JP","countyCode":"JP-21","code":"Q853835","name":"美濃市","latitude":"35.57892000","longitude":"136.90120000","wikiDataId":"Q853835","type":"administrative","placeRank":16},"Q857305":{"countryCode":"JP","countyCode":"JP-21","code":"Q857305","name":"美濃加茂市","latitude":"35.48386000","longitude":"137.02658000","wikiDataId":"Q857305","type":"administrative","placeRank":16},"Q242885":{"countryCode":"JP","countyCode":"JP-13","code":"Q242885","name":"三鷹市","latitude":"35.68351000","longitude":"139.55963000","wikiDataId":"Q242885","type":"administrative","placeRank":16},"Q782103":{"countryCode":"JP","countyCode":"JP-21","code":"Q782103","name":"瑞穂市","latitude":"35.39663000","longitude":"136.67022000","wikiDataId":"Q782103","type":"administrative","placeRank":16},"Q853821":{"countryCode":"JP","countyCode":"JP-03","code":"Q853821","name":"瑞浪市","latitude":"39.13333000","longitude":"141.13333000","wikiDataId":"Q853821","type":"administrative","placeRank":16},"Q844047":{"countryCode":"JP","countyCode":"JP-15","code":"Q844047","name":"本巣市","latitude":"37.06667000","longitude":"138.88333000","wikiDataId":"Q844047","type":"administrative","placeRank":16},"Q844052":{"countryCode":"JP","countyCode":"JP-21","code":"Q844052","name":"中津川市","latitude":"35.56656000","longitude":"137.47433000","wikiDataId":"Q844052","type":"administrative","placeRank":16},"Q384926":{"countryCode":"JP","countyCode":"JP-21","code":"Q384926","name":"大垣市","latitude":"35.36485000","longitude":"136.60189000","wikiDataId":"Q384926","type":"administrative","placeRank":16},"Q860647":{"countryCode":"JP","countyCode":"JP-21","code":"Q860647","name":"関市","latitude":"35.48333000","longitude":"136.91667000","wikiDataId":"Q860647","type":"administrative","placeRank":16},"Q232641":{"countryCode":"JP","countyCode":"JP-13","code":"Q232641","name":"台東区","latitude":"35.71261000","longitude":"139.78000000","wikiDataId":"Q232641","type":"administrative","placeRank":16},"Q819689":{"countryCode":"JP","countyCode":"JP-27","code":"Q819689","name":"多治見市","latitude":"34.42695000","longitude":"135.24552000","wikiDataId":"Q819689","type":"administrative","placeRank":16},"Q622594":{"countryCode":"JP","countyCode":"JP-21","code":"Q622594","name":"高山市","latitude":"36.13181000","longitude":"137.28585000","wikiDataId":"Q622594","type":"administrative","placeRank":16},"Q847332":{"countryCode":"JP","countyCode":"JP-21","code":"Q847332","name":"土岐市","latitude":"35.32418000","longitude":"137.20748000","wikiDataId":"Q847332","type":"administrative","placeRank":16},"Q205526":{"countryCode":"JP","countyCode":"JP-06","code":"Q205526","name":"山形市","latitude":"38.24907000","longitude":"140.37272000","wikiDataId":"Q205526","type":"administrative","placeRank":16},"Q564234":{"countryCode":"JP","countyCode":"JP-10","code":"Q564234","name":"安中市","latitude":"36.34079000","longitude":"138.77647000","wikiDataId":"Q564234","type":"administrative","placeRank":16},"Q596486":{"countryCode":"JP","countyCode":"JP-10","code":"Q596486","name":"藤岡市","latitude":"36.19213000","longitude":"138.99918000","wikiDataId":"Q596486","type":"administrative","placeRank":16},"Q734520":{"countryCode":"JP","countyCode":"JP-14","code":"Q734520","name":"伊勢原市","latitude":"35.41011000","longitude":"139.29203000","wikiDataId":"Q734520","type":"administrative","placeRank":16},"Q328596":{"countryCode":"JP","countyCode":"JP-47","code":"Q328596","name":"伊勢崎市","latitude":"24.34478000","longitude":"124.15717000","wikiDataId":"Q328596","type":"administrative","placeRank":16},"Q634022":{"countryCode":"JP","countyCode":"JP-10","code":"Q634022","name":"桐生市","latitude":"36.45702000","longitude":"139.30962000","wikiDataId":"Q634022","type":"administrative","placeRank":16},"Q201613":{"countryCode":"JP","countyCode":"JP-10","code":"Q201613","name":"前橋市","latitude":"36.41432000","longitude":"139.13110000","wikiDataId":"Q201613","type":"administrative","placeRank":16},"Q576556":{"countryCode":"JP","countyCode":"JP-10","code":"Q576556","name":"みどり市","latitude":"36.53044000","longitude":"139.34728000","wikiDataId":"Q576556","type":"administrative","placeRank":16},"Q234087":{"countryCode":"JP","countyCode":"JP-13","code":"Q234087","name":"中野区","latitude":"35.71091000","longitude":"139.66248000","wikiDataId":"Q234087","type":"administrative","placeRank":16},"Q666317":{"countryCode":"JP","countyCode":"JP-10","code":"Q666317","name":"沼田市","latitude":"36.67371000","longitude":"139.18353000","wikiDataId":"Q666317","type":"administrative","placeRank":16},"Q386052":{"countryCode":"JP","countyCode":"JP-03","code":"Q386052","name":"奥州市","latitude":"39.12962000","longitude":"141.09479000","wikiDataId":"Q386052","type":"administrative","placeRank":16},"Q386179":{"countryCode":"JP","countyCode":"JP-34","code":"Q386179","name":"太田市","latitude":"34.20754000","longitude":"132.22063000","wikiDataId":"Q386179","type":"administrative","placeRank":16},"Q193428":{"countryCode":"JP","countyCode":"JP-27","code":"Q193428","name":"堺市","latitude":"34.53166000","longitude":"135.49460000","wikiDataId":"Q193428","type":"administrative","placeRank":16},"Q601950":{"countryCode":"JP","countyCode":"JP-15","code":"Q601950","name":"新発田市","latitude":"37.90732000","longitude":"139.42786000","wikiDataId":"Q601950","type":"administrative","placeRank":16},"Q851492":{"countryCode":"JP","countyCode":"JP-46","code":"Q851492","name":"渋川市","latitude":"31.47600000","longitude":"131.10114000","wikiDataId":"Q851492","type":"administrative","placeRank":16},"Q823967":{"countryCode":"JP","countyCode":"JP-28","code":"Q823967","name":"宝塚市","latitude":"34.77796000","longitude":"134.78665000","wikiDataId":"Q823967","type":"administrative","placeRank":16},"Q336438":{"countryCode":"JP","countyCode":"JP-10","code":"Q336438","name":"高崎市","latitude":"36.40538000","longitude":"138.89227000","wikiDataId":"Q336438","type":"administrative","placeRank":16},"Q213263":{"countryCode":"JP","countyCode":"JP-13","code":"Q213263","name":"多摩市","latitude":"35.63054000","longitude":"139.43976000","wikiDataId":"Q213263","type":"administrative","placeRank":16},"Q858016":{"countryCode":"JP","countyCode":"JP-10","code":"Q858016","name":"館林市","latitude":"36.24597000","longitude":"139.53533000","wikiDataId":"Q858016","type":"administrative","placeRank":16},"Q873835":{"countryCode":"JP","countyCode":"JP-10","code":"Q873835","name":"富岡市","latitude":"36.25000000","longitude":"138.88333000","wikiDataId":"Q873835","type":"administrative","placeRank":16},"Q961604":{"countryCode":"JP","countyCode":"JP-11","code":"Q961604","name":"寄居町","latitude":"36.11567000","longitude":"139.19429000","wikiDataId":"Q961604","type":"administrative","placeRank":16},"Q419392":{"countryCode":"JP","countyCode":"JP-34","code":"Q419392","name":"安芸高田市","latitude":"34.70248000","longitude":"132.67770000","wikiDataId":"Q419392","type":"administrative","placeRank":16},"Q865506":{"countryCode":"JP","countyCode":"JP-34","code":"Q865506","name":"江田島市","latitude":"34.21989000","longitude":"132.44345000","wikiDataId":"Q865506","type":"administrative","placeRank":16},"Q686775":{"countryCode":"JP","countyCode":"JP-34","code":"Q686775","name":"府中市","latitude":"34.56667000","longitude":"133.23333000","wikiDataId":"Q686775","type":"administrative","placeRank":16},"Q1204737":{"countryCode":"JP","countyCode":"JP-34","code":"Q1204737","name":"府中町","latitude":"34.57350000","longitude":"133.23513000","wikiDataId":"Q1204737","type":"administrative","placeRank":16},"Q857256":{"countryCode":"JP","countyCode":"JP-11","code":"Q857256","name":"蓮田市","latitude":"35.83314000","longitude":"139.74250000","wikiDataId":"Q857256","type":"administrative","placeRank":16},"Q736897":{"countryCode":"JP","countyCode":"JP-14","code":"Q736897","name":"廿日市市","latitude":"35.27651000","longitude":"139.57733000","wikiDataId":"Q736897","type":"administrative","placeRank":16},"Q653372":{"countryCode":"JP","countyCode":"JP-34","code":"Q653372","name":"東広島市","latitude":"34.44755000","longitude":"132.76116000","wikiDataId":"Q653372","type":"administrative","placeRank":16},"Q34664":{"countryCode":"JP","countyCode":"JP-24","code":"Q34664","name":"広島市","latitude":"34.66667000","longitude":"136.46667000","wikiDataId":"Q34664","type":"administrative","placeRank":16},"Q223439":{"countryCode":"JP","countyCode":"JP-34","code":"Q223439","name":"呉市","latitude":"34.22448000","longitude":"132.62914000","wikiDataId":"Q223439","type":"administrative","placeRank":16},"Q840591":{"countryCode":"JP","countyCode":"JP-34","code":"Q840591","name":"三次市","latitude":"34.79201000","longitude":"132.86435000","wikiDataId":"Q840591","type":"administrative","placeRank":16},"Q696694":{"countryCode":"JP","countyCode":"JP-34","code":"Q696694","name":"尾道市","latitude":"34.42630000","longitude":"133.16329000","wikiDataId":"Q696694","type":"administrative","placeRank":16},"Q386250":{"countryCode":"JP","countyCode":"JP-34","code":"Q386250","name":"大竹市","latitude":"34.25787000","longitude":"132.18756000","wikiDataId":"Q386250","type":"administrative","placeRank":16},"Q857234":{"countryCode":"JP","countyCode":"JP-34","code":"Q857234","name":"庄原市","latitude":"34.94831000","longitude":"133.06769000","wikiDataId":"Q857234","type":"administrative","placeRank":16},"Q200500":{"countryCode":"JP","countyCode":"JP-41","code":"Q200500","name":"竹原市","latitude":"33.20413000","longitude":"129.99775000","wikiDataId":"Q200500","type":"administrative","placeRank":16},"Q413804":{"countryCode":"JP","countyCode":"JP-01","code":"Q413804","name":"赤平市","latitude":"43.56790000","longitude":"142.06281000","wikiDataId":"Q413804","type":"administrative","placeRank":16},"Q200740":{"countryCode":"JP","countyCode":"JP-01","code":"Q200740","name":"旭川市","latitude":"43.77063000","longitude":"142.36489000","wikiDataId":"Q200740","type":"administrative","placeRank":16},"Q725311":{"countryCode":"JP","countyCode":"JP-01","code":"Q725311","name":"芦別市","latitude":"43.42542000","longitude":"142.20161000","wikiDataId":"Q725311","type":"administrative","placeRank":16},"Q817271":{"countryCode":"JP","countyCode":"JP-01","code":"Q817271","name":"美唄市","latitude":"43.32472000","longitude":"141.85861000","wikiDataId":"Q817271","type":"administrative","placeRank":16},"Q693237":{"countryCode":"JP","countyCode":"JP-01","code":"Q693237","name":"千歳市","latitude":"42.80048000","longitude":"141.50951000","wikiDataId":"Q693237","type":"administrative","placeRank":16},"Q693178":{"countryCode":"JP","countyCode":"JP-01","code":"Q693178","name":"伊達市","latitude":"42.46806000","longitude":"140.86806000","wikiDataId":"Q693178","type":"administrative","placeRank":16},"Q496681":{"countryCode":"JP","countyCode":"JP-01","code":"Q496681","name":"江別市","latitude":"43.10806000","longitude":"141.55056000","wikiDataId":"Q496681","type":"administrative","placeRank":16},"Q733979":{"countryCode":"JP","countyCode":"JP-01","code":"Q733979","name":"恵庭市","latitude":"42.88333000","longitude":"141.56667000","wikiDataId":"Q733979","type":"administrative","placeRank":16},"Q817268":{"countryCode":"JP","countyCode":"JP-01","code":"Q817268","name":"深川市","latitude":"43.79334000","longitude":"142.09923000","wikiDataId":"Q817268","type":"administrative","placeRank":16},"Q654738":{"countryCode":"JP","countyCode":"JP-01","code":"Q654738","name":"富良野市","latitude":"43.28182000","longitude":"142.47349000","wikiDataId":"Q654738","type":"administrative","placeRank":16},"Q26418":{"countryCode":"JP","countyCode":"JP-20","code":"Q26418","name":"函館市","latitude":"36.69818000","longitude":"137.86185000","wikiDataId":"Q26418","type":"administrative","placeRank":16},"Q842301":{"countryCode":"JP","countyCode":"JP-19","code":"Q842301","name":"北斗市","latitude":"35.83458000","longitude":"138.39606000","wikiDataId":"Q842301","type":"administrative","placeRank":16},"Q825272":{"countryCode":"JP","countyCode":"JP-19","code":"Q825272","name":"北杜市","latitude":"35.83717000","longitude":"138.39375000","wikiDataId":"Q825272","type":"administrative","placeRank":16},"Q11584779":{"countryCode":"JP","countyCode":"JP-36","code":"Q11584779","name":"石下町","latitude":"34.06752000","longitude":"134.44208000","wikiDataId":"Q11584779","type":"administrative","placeRank":16},"Q693221":{"countryCode":"JP","countyCode":"JP-47","code":"Q693221","name":"石狩市","latitude":"26.42333000","longitude":"127.82139000","wikiDataId":"Q693221","type":"administrative","placeRank":16},"Q693264":{"countryCode":"JP","countyCode":"JP-04","code":"Q693264","name":"岩見沢市","latitude":"38.10472000","longitude":"140.85944000","wikiDataId":"Q693264","type":"administrative","placeRank":16},"Q817278":{"countryCode":"JP","countyCode":"JP-08","code":"Q817278","name":"北広島市","latitude":"36.78671000","longitude":"140.74901000","wikiDataId":"Q817278","type":"administrative","placeRank":16},"Q265555":{"countryCode":"JP","countyCode":"JP-01","code":"Q265555","name":"北見市","latitude":"43.80306000","longitude":"143.89083000","wikiDataId":"Q265555","type":"administrative","placeRank":16},"Q271917":{"countryCode":"JP","countyCode":"JP-24","code":"Q271917","name":"釧路市","latitude":"35.05192000","longitude":"136.66958000","wikiDataId":"Q271917","type":"administrative","placeRank":16},"Q850527":{"countryCode":"JP","countyCode":"JP-22","code":"Q850527","name":"牧之原市","latitude":"34.73226000","longitude":"138.18567000","wikiDataId":"Q850527","type":"administrative","placeRank":16},"Q842318":{"countryCode":"JP","countyCode":"JP-01","code":"Q842318","name":"三笠市","latitude":"43.23976000","longitude":"141.99273000","wikiDataId":"Q842318","type":"administrative","placeRank":16},"Q692745":{"countryCode":"JP","countyCode":"JP-09","code":"Q692745","name":"紋別市","latitude":"36.43333000","longitude":"140.01667000","wikiDataId":"Q692745","type":"administrative","placeRank":16},"Q1355074":{"countryCode":"JP","countyCode":"JP-01","code":"Q1355074","name":"美幌町","latitude":"43.82634000","longitude":"144.09638000","wikiDataId":"Q1355074","type":"administrative","placeRank":16},"Q858008":{"countryCode":"JP","countyCode":"JP-06","code":"Q858008","name":"村山市","latitude":"38.51671000","longitude":"140.33518000","wikiDataId":"Q858008","type":"administrative","placeRank":16},"Q496667":{"countryCode":"JP","countyCode":"JP-01","code":"Q496667","name":"室蘭市","latitude":"42.36659000","longitude":"140.98845000","wikiDataId":"Q496667","type":"administrative","placeRank":16},"Q820725":{"countryCode":"JP","countyCode":"JP-46","code":"Q820725","name":"名寄市","latitude":"28.36667000","longitude":"129.48333000","wikiDataId":"Q820725","type":"administrative","placeRank":16},"Q502205":{"countryCode":"JP","countyCode":"JP-01","code":"Q502205","name":"根室市","latitude":"43.33333000","longitude":"145.61667000","wikiDataId":"Q502205","type":"administrative","placeRank":16},"Q177149":{"countryCode":"JP","countyCode":"JP-01","code":"Q177149","name":"帯広市","latitude":"42.75736000","longitude":"143.03061000","wikiDataId":"Q177149","type":"administrative","placeRank":16},"Q35765":{"countryCode":"JP","countyCode":"JP-27","code":"Q35765","name":"大阪市","latitude":"34.69374000","longitude":"135.50218000","wikiDataId":"Q35765","type":"administrative","placeRank":16},"Q1272571":{"countryCode":"JP","countyCode":"JP-04","code":"Q1272571","name":"礼文町","latitude":"38.33092000","longitude":"140.97691000","wikiDataId":"Q1272571","type":"administrative","placeRank":16},"Q1355370":{"countryCode":"JP","countyCode":"JP-01","code":"Q1355370","name":"利尻町","latitude":"45.15928000","longitude":"141.19629000","wikiDataId":"Q1355370","type":"administrative","placeRank":16},"Q714628":{"countryCode":"JP","countyCode":"JP-15","code":"Q714628","name":"留萌市","latitude":"38.07817000","longitude":"138.43939000","wikiDataId":"Q714628","type":"administrative","placeRank":16},"Q861239":{"countryCode":"JP","countyCode":"JP-35","code":"Q861239","name":"山陽小野田市","latitude":"34.03956000","longitude":"131.15417000","wikiDataId":"Q861239","type":"administrative","placeRank":16},"Q37951":{"countryCode":"JP","countyCode":"JP-01","code":"Q37951","name":"札幌市","latitude":"43.06667000","longitude":"141.35000000","wikiDataId":"Q37951","type":"administrative","placeRank":16},"Q605256":{"countryCode":"JP","countyCode":"JP-22","code":"Q605256","name":"島田市","latitude":"34.91220000","longitude":"138.12662000","wikiDataId":"Q605256","type":"administrative","placeRank":16},"Q1348760":{"countryCode":"JP","countyCode":"JP-11","code":"Q1348760","name":"白老町","latitude":"36.01839000","longitude":"139.66034000","wikiDataId":"Q1348760","type":"administrative","placeRank":16},"Q1348478":{"countryCode":"JP","countyCode":"JP-22","code":"Q1348478","name":"雫石町","latitude":"34.98333000","longitude":"138.38333000","wikiDataId":"Q1348478","type":"administrative","placeRank":16},"Q369628":{"countryCode":"JP","countyCode":"JP-28","code":"Q369628","name":"洲本市","latitude":"34.34533000","longitude":"134.85858000","wikiDataId":"Q369628","type":"administrative","placeRank":16},"Q507147":{"countryCode":"JP","countyCode":"JP-01","code":"Q507147","name":"砂川市","latitude":"43.50328000","longitude":"141.93274000","wikiDataId":"Q507147","type":"administrative","placeRank":16},"Q842286":{"countryCode":"JP","countyCode":"JP-01","code":"Q842286","name":"滝川市","latitude":"43.60837000","longitude":"141.94988000","wikiDataId":"Q842286","type":"administrative","placeRank":16},"Q1348675":{"countryCode":"JP","countyCode":"JP-01","code":"Q1348675","name":"当別町","latitude":"43.21694000","longitude":"141.51694000","wikiDataId":"Q1348675","type":"administrative","placeRank":16},"Q207309":{"countryCode":"JP","countyCode":"JP-35","code":"Q207309","name":"徳島市","latitude":"34.05000000","longitude":"131.81667000","wikiDataId":"Q207309","type":"administrative","placeRank":16},"Q390413":{"countryCode":"JP","countyCode":"JP-01","code":"Q390413","name":"苫小牧市","latitude":"42.68226000","longitude":"141.57948000","wikiDataId":"Q390413","type":"administrative","placeRank":16},"Q845792":{"countryCode":"JP","countyCode":"JP-44","code":"Q845792","name":"臼杵市","latitude":"33.07223000","longitude":"131.74457000","wikiDataId":"Q845792","type":"administrative","placeRank":16},"Q842279":{"countryCode":"JP","countyCode":"JP-01","code":"Q842279","name":"歌志内市","latitude":"43.49366000","longitude":"142.03878000","wikiDataId":"Q842279","type":"administrative","placeRank":16},"Q267894":{"countryCode":"JP","countyCode":"JP-11","code":"Q267894","name":"稚内市","latitude":"35.78944000","longitude":"139.62333000","wikiDataId":"Q267894","type":"administrative","placeRank":16},"Q637145":{"countryCode":"JP","countyCode":"JP-08","code":"Q637145","name":"夕張市","latitude":"36.30000000","longitude":"139.88333000","wikiDataId":"Q637145","type":"administrative","placeRank":16},"Q406318":{"countryCode":"JP","countyCode":"JP-28","code":"Q406318","name":"相生市","latitude":"34.82719000","longitude":"134.46699000","wikiDataId":"Q406318","type":"administrative","placeRank":16},"Q26406":{"countryCode":"JP","countyCode":"JP-28","code":"Q26406","name":"明石市","latitude":"34.68277000","longitude":"134.94029000","wikiDataId":"Q26406","type":"administrative","placeRank":16},"Q213318":{"countryCode":"JP","countyCode":"JP-28","code":"Q213318","name":"尼崎市","latitude":"34.73544000","longitude":"135.41181000","wikiDataId":"Q213318","type":"administrative","placeRank":16},"Q725514":{"countryCode":"JP","countyCode":"JP-28","code":"Q725514","name":"芦屋市","latitude":"34.74853000","longitude":"135.29759000","wikiDataId":"Q725514","type":"administrative","placeRank":16},"Q373107":{"countryCode":"JP","countyCode":"JP-28","code":"Q373107","name":"淡路市","latitude":"34.49749000","longitude":"134.91331000","wikiDataId":"Q373107","type":"administrative","placeRank":16},"Q209801":{"countryCode":"JP","countyCode":"JP-16","code":"Q209801","name":"姫路市","latitude":"36.87218000","longitude":"136.94066000","wikiDataId":"Q209801","type":"administrative","placeRank":16},"Q840598":{"countryCode":"JP","countyCode":"JP-08","code":"Q840598","name":"潮来市","latitude":"35.96100000","longitude":"140.56210000","wikiDataId":"Q840598","type":"administrative","placeRank":16},"Q335444":{"countryCode":"JP","countyCode":"JP-28","code":"Q335444","name":"伊丹市","latitude":"34.78675000","longitude":"135.40562000","wikiDataId":"Q335444","type":"administrative","placeRank":16},"Q823988":{"countryCode":"JP","countyCode":"JP-22","code":"Q823988","name":"掛川市","latitude":"34.77993000","longitude":"138.01897000","wikiDataId":"Q823988","type":"administrative","placeRank":16},"Q750569":{"countryCode":"JP","countyCode":"JP-28","code":"Q750569","name":"加古川市","latitude":"34.76943000","longitude":"134.82905000","wikiDataId":"Q750569","type":"administrative","placeRank":16},"Q851155":{"countryCode":"JP","countyCode":"JP-08","code":"Q851155","name":"加西市","latitude":"36.38333000","longitude":"140.26667000","wikiDataId":"Q851155","type":"administrative","placeRank":16},"Q877164":{"countryCode":"JP","countyCode":"JP-28","code":"Q877164","name":"加東市","latitude":"34.92714000","longitude":"135.02134000","wikiDataId":"Q877164","type":"administrative","placeRank":16},"Q609350":{"countryCode":"JP","countyCode":"JP-28","code":"Q609350","name":"川西市","latitude":"34.87955000","longitude":"135.40919000","wikiDataId":"Q609350","type":"administrative","placeRank":16},"Q48320":{"countryCode":"JP","countyCode":"JP-28","code":"Q48320","name":"神戸市","latitude":"34.69130000","longitude":"135.18300000","wikiDataId":"Q48320","type":"administrative","placeRank":16},"Q869004":{"countryCode":"JP","countyCode":"JP-28","code":"Q869004","name":"南あわじ市","latitude":"34.27530000","longitude":"134.76465000","wikiDataId":"Q869004","type":"administrative","placeRank":16},"Q243853":{"countryCode":"JP","countyCode":"JP-46","code":"Q243853","name":"西宮市","latitude":"30.73333000","longitude":"131.00000000","wikiDataId":"Q243853","type":"administrative","placeRank":16},"Q869020":{"countryCode":"JP","countyCode":"JP-28","code":"Q869020","name":"西脇市","latitude":"35.01098000","longitude":"134.99650000","wikiDataId":"Q869020","type":"administrative","placeRank":16},"Q911717":{"countryCode":"JP","countyCode":"JP-28","code":"Q911717","name":"小野市","latitude":"34.85000000","longitude":"134.93333000","wikiDataId":"Q911717","type":"administrative","placeRank":16},"Q847607":{"countryCode":"JP","countyCode":"JP-28","code":"Q847607","name":"三田市","latitude":"34.88444000","longitude":"135.22694000","wikiDataId":"Q847607","type":"administrative","placeRank":16},"Q877169":{"countryCode":"JP","countyCode":"JP-28","code":"Q877169","name":"丹波篠山市","latitude":"35.07523000","longitude":"135.23087000","wikiDataId":"Q877169","type":"administrative","placeRank":16},"Q857272":{"countryCode":"JP","countyCode":"JP-15","code":"Q857272","name":"塩尻市","latitude":"37.03757000","longitude":"138.84867000","wikiDataId":"Q857272","type":"administrative","placeRank":16},"Q877216":{"countryCode":"JP","countyCode":"JP-28","code":"Q877216","name":"宍粟市","latitude":"35.15466000","longitude":"134.54337000","wikiDataId":"Q877216","type":"administrative","placeRank":16},"Q1155253":{"countryCode":"JP","countyCode":"JP-28","code":"Q1155253","name":"多可町","latitude":"35.08473000","longitude":"134.90474000","wikiDataId":"Q1155253","type":"administrative","placeRank":16},"Q877196":{"countryCode":"JP","countyCode":"JP-28","code":"Q877196","name":"丹波市","latitude":"35.17715000","longitude":"135.04972000","wikiDataId":"Q877196","type":"administrative","placeRank":16},"Q877190":{"countryCode":"JP","countyCode":"JP-29","code":"Q877190","name":"たつの市","latitude":"34.55420000","longitude":"135.79297000","wikiDataId":"Q877190","type":"administrative","placeRank":16},"Q696388":{"countryCode":"JP","countyCode":"JP-20","code":"Q696388","name":"豊岡市","latitude":"36.29991000","longitude":"137.90108000","wikiDataId":"Q696388","type":"administrative","placeRank":16},"Q869014":{"countryCode":"JP","countyCode":"JP-28","code":"Q869014","name":"養父市","latitude":"35.38333000","longitude":"134.81667000","wikiDataId":"Q869014","type":"administrative","placeRank":16},"Q838669":{"countryCode":"JP","countyCode":"JP-29","code":"Q838669","name":"大和高田市","latitude":"34.51490000","longitude":"135.73660000","wikiDataId":"Q838669","type":"administrative","placeRank":16},"Q869032":{"countryCode":"JP","countyCode":"JP-11","code":"Q869032","name":"八潮市","latitude":"35.80918000","longitude":"139.84669000","wikiDataId":"Q869032","type":"administrative","placeRank":16},"Q320964":{"countryCode":"JP","countyCode":"JP-06","code":"Q320964","name":"米子市","latitude":"37.91000000","longitude":"140.11667000","wikiDataId":"Q320964","type":"administrative","placeRank":16},"Q1203814":{"countryCode":"JP","countyCode":"JP-08","code":"Q1203814","name":"阿見町","latitude":"36.03333000","longitude":"140.20000000","wikiDataId":"Q1203814","type":"administrative","placeRank":16},"Q583931":{"countryCode":"JP","countyCode":"JP-08","code":"Q583931","name":"坂東市","latitude":"36.06384000","longitude":"139.88787000","wikiDataId":"Q583931","type":"administrative","placeRank":16},"Q694322":{"countryCode":"JP","countyCode":"JP-08","code":"Q694322","name":"筑西市","latitude":"36.28938000","longitude":"139.98692000","wikiDataId":"Q694322","type":"administrative","placeRank":16},"Q1346817":{"countryCode":"JP","countyCode":"JP-08","code":"Q1346817","name":"大子町","latitude":"36.76667000","longitude":"140.35000000","wikiDataId":"Q1346817","type":"administrative","placeRank":16},"Q386968":{"countryCode":"JP","countyCode":"JP-44","code":"Q386968","name":"日田市","latitude":"33.24452000","longitude":"130.95063000","wikiDataId":"Q386968","type":"administrative","placeRank":16},"Q838663":{"countryCode":"JP","countyCode":"JP-08","code":"Q838663","name":"常陸太田市","latitude":"36.55130000","longitude":"140.52821000","wikiDataId":"Q838663","type":"administrative","placeRank":16},"Q633922":{"countryCode":"JP","countyCode":"JP-08","code":"Q633922","name":"日立市","latitude":"36.62492000","longitude":"140.61876000","wikiDataId":"Q633922","type":"administrative","placeRank":16},"Q696772":{"countryCode":"JP","countyCode":"JP-08","code":"Q696772","name":"ひたちなか市","latitude":"36.39596000","longitude":"140.55789000","wikiDataId":"Q696772","type":"administrative","placeRank":16},"Q838681":{"countryCode":"JP","countyCode":"JP-43","code":"Q838681","name":"常陸大宮市","latitude":"32.21667000","longitude":"130.75000000","wikiDataId":"Q838681","type":"administrative","placeRank":16},"Q857297":{"countryCode":"JP","countyCode":"JP-08","code":"Q857297","name":"鉾田市","latitude":"36.17337000","longitude":"140.51993000","wikiDataId":"Q857297","type":"administrative","placeRank":16},"Q838675":{"countryCode":"JP","countyCode":"JP-08","code":"Q838675","name":"稲敷市","latitude":"35.94563000","longitude":"140.36889000","wikiDataId":"Q838675","type":"administrative","placeRank":16},"Q819658":{"countryCode":"JP","countyCode":"JP-08","code":"Q819658","name":"石岡市","latitude":"36.22776000","longitude":"140.21786000","wikiDataId":"Q819658","type":"administrative","placeRank":16},"Q582289":{"countryCode":"JP","countyCode":"JP-15","code":"Q582289","name":"上越市","latitude":"37.12010000","longitude":"138.33752000","wikiDataId":"Q582289","type":"administrative","placeRank":16},"Q840595":{"countryCode":"JP","countyCode":"JP-08","code":"Q840595","name":"神栖市","latitude":"35.85126000","longitude":"140.71171000","wikiDataId":"Q840595","type":"administrative","placeRank":16},"Q845851":{"countryCode":"JP","countyCode":"JP-08","code":"Q845851","name":"笠間市","latitude":"36.35651000","longitude":"140.26935000","wikiDataId":"Q845851","type":"administrative","placeRank":16},"Q467471":{"countryCode":"JP","countyCode":"JP-08","code":"Q467471","name":"鹿嶋市","latitude":"35.96536000","longitude":"140.64474000","wikiDataId":"Q467471","type":"administrative","placeRank":16},"Q772817":{"countryCode":"JP","countyCode":"JP-08","code":"Q772817","name":"かすみがうら市","latitude":"36.10937000","longitude":"140.30205000","wikiDataId":"Q772817","type":"administrative","placeRank":16},"Q232628":{"countryCode":"JP","countyCode":"JP-13","code":"Q232628","name":"葛飾区","latitude":"35.75324000","longitude":"139.85567000","wikiDataId":"Q232628","type":"administrative","placeRank":16},"Q838654":{"countryCode":"JP","countyCode":"JP-08","code":"Q838654","name":"北茨城市","latitude":"36.83987000","longitude":"140.68736000","wikiDataId":"Q838654","type":"administrative","placeRank":16},"Q836836":{"countryCode":"JP","countyCode":"JP-08","code":"Q836836","name":"古河市","latitude":"36.17975000","longitude":"139.77534000","wikiDataId":"Q836836","type":"administrative","placeRank":16},"Q204249":{"countryCode":"JP","countyCode":"JP-08","code":"Q204249","name":"水戸市","latitude":"36.37053000","longitude":"140.43559000","wikiDataId":"Q204249","type":"administrative","placeRank":16},"Q35730791":{"countryCode":"JP","countyCode":"JP-15","code":"Q35730791","name":"常総市","latitude":"37.53333000","longitude":"138.93333000","wikiDataId":"Q35730791","type":"administrative","placeRank":16},"Q840608":{"countryCode":"JP","countyCode":"JP-08","code":"Q840608","name":"守谷市","latitude":"35.95140000","longitude":"139.97539000","wikiDataId":"Q840608","type":"administrative","placeRank":16},"Q181966":{"countryCode":"JP","countyCode":"JP-47","code":"Q181966","name":"那覇市","latitude":"26.21077000","longitude":"127.68645000","wikiDataId":"Q181966","type":"administrative","placeRank":16},"Q633647":{"countryCode":"JP","countyCode":"JP-08","code":"Q633647","name":"那珂市","latitude":"36.46934000","longitude":"140.47943000","wikiDataId":"Q633647","type":"administrative","placeRank":16},"Q877184":{"countryCode":"JP","countyCode":"JP-16","code":"Q877184","name":"行方市","latitude":"36.75965000","longitude":"137.36215000","wikiDataId":"Q877184","type":"administrative","placeRank":16},"Q328615":{"countryCode":"JP","countyCode":"JP-47","code":"Q328615","name":"沖縄市","latitude":"26.35313000","longitude":"127.80754000","wikiDataId":"Q328615","type":"administrative","placeRank":16},"Q430584":{"countryCode":"JP","countyCode":"JP-08","code":"Q430584","name":"小美玉市","latitude":"36.20403000","longitude":"140.35980000","wikiDataId":"Q430584","type":"administrative","placeRank":16},"Q385461":{"countryCode":"JP","countyCode":"JP-25","code":"Q385461","name":"近江八幡市","latitude":"35.15251000","longitude":"136.06964000","wikiDataId":"Q385461","type":"administrative","placeRank":16},"Q844138":{"countryCode":"JP","countyCode":"JP-19","code":"Q844138","name":"龍ケ崎市","latitude":"35.65000000","longitude":"138.50000000","wikiDataId":"Q844138","type":"administrative","placeRank":16},"Q850344":{"countryCode":"JP","countyCode":"JP-11","code":"Q850344","name":"坂戸市","latitude":"35.96776000","longitude":"139.40595000","wikiDataId":"Q850344","type":"administrative","placeRank":16},"Q990350":{"countryCode":"JP","countyCode":"JP-29","code":"Q990350","name":"桜川市","latitude":"34.50000000","longitude":"135.85000000","wikiDataId":"Q990350","type":"administrative","placeRank":16},"Q653402":{"countryCode":"JP","countyCode":"JP-22","code":"Q653402","name":"下田市","latitude":"34.70879000","longitude":"138.92148000","wikiDataId":"Q653402","type":"administrative","placeRank":16},"Q533241":{"countryCode":"JP","countyCode":"JP-08","code":"Q533241","name":"下妻市","latitude":"36.18743000","longitude":"139.96642000","wikiDataId":"Q533241","type":"administrative","placeRank":16},"Q1205173":{"countryCode":"JP","countyCode":"JP-04","code":"Q1205173","name":"富谷市","latitude":"38.39306000","longitude":"140.88611000","wikiDataId":"Q1205173","type":"administrative","placeRank":16},"Q1349486":{"countryCode":"JP","countyCode":"JP-37","code":"Q1349486","name":"土庄町","latitude":"34.48047000","longitude":"134.17017000","wikiDataId":"Q1349486","type":"administrative","placeRank":16},"Q638312":{"countryCode":"JP","countyCode":"JP-08","code":"Q638312","name":"取手市","latitude":"35.91286000","longitude":"140.08009000","wikiDataId":"Q638312","type":"administrative","placeRank":16},"Q653446":{"countryCode":"JP","countyCode":"JP-08","code":"Q653446","name":"土浦市","latitude":"36.08333000","longitude":"140.20000000","wikiDataId":"Q653446","type":"administrative","placeRank":16},"Q273863":{"countryCode":"JP","countyCode":"JP-08","code":"Q273863","name":"つくば市","latitude":"36.10532000","longitude":"140.08174000","wikiDataId":"Q273863","type":"administrative","placeRank":16},"Q877254":{"countryCode":"JP","countyCode":"JP-44","code":"Q877254","name":"つくばみらい市","latitude":"33.06667000","longitude":"131.86667000","wikiDataId":"Q877254","type":"administrative","placeRank":16},"Q844133":{"countryCode":"JP","countyCode":"JP-44","code":"Q844133","name":"牛久市","latitude":"33.12342000","longitude":"131.80401000","wikiDataId":"Q844133","type":"administrative","placeRank":16},"Q847569":{"countryCode":"JP","countyCode":"JP-08","code":"Q847569","name":"結城市","latitude":"36.26127000","longitude":"139.86403000","wikiDataId":"Q847569","type":"administrative","placeRank":16},"Q822585":{"countryCode":"JP","countyCode":"JP-17","code":"Q822585","name":"羽咋市","latitude":"36.91136000","longitude":"136.81626000","wikiDataId":"Q822585","type":"administrative","placeRank":16},"Q696407":{"countryCode":"JP","countyCode":"JP-17","code":"Q696407","name":"白山市","latitude":"36.27558000","longitude":"136.66966000","wikiDataId":"Q696407","type":"administrative","placeRank":16},"Q120103":{"countryCode":"JP","countyCode":"JP-46","code":"Q120103","name":"加賀市","latitude":"31.56667000","longitude":"130.55000000","wikiDataId":"Q120103","type":"administrative","placeRank":16},"Q846335":{"countryCode":"JP","countyCode":"JP-17","code":"Q846335","name":"かほく市","latitude":"36.74365000","longitude":"136.73273000","wikiDataId":"Q846335","type":"administrative","placeRank":16},"Q646898":{"countryCode":"JP","countyCode":"JP-36","code":"Q646898","name":"小松市","latitude":"33.98071000","longitude":"134.59529000","wikiDataId":"Q646898","type":"administrative","placeRank":16},"Q213324":{"countryCode":"JP","countyCode":"JP-20","code":"Q213324","name":"松本市","latitude":"36.20418000","longitude":"137.81419000","wikiDataId":"Q213324","type":"administrative","placeRank":16},"Q695892":{"countryCode":"JP","countyCode":"JP-17","code":"Q695892","name":"七尾市","latitude":"37.07844000","longitude":"136.92860000","wikiDataId":"Q695892","type":"administrative","placeRank":16},"Q658912":{"countryCode":"JP","countyCode":"JP-17","code":"Q658912","name":"能美市","latitude":"36.53333000","longitude":"136.61667000","wikiDataId":"Q658912","type":"administrative","placeRank":16},"Q1354896":{"countryCode":"JP","countyCode":"JP-17","code":"Q1354896","name":"野々市市","latitude":"36.52288000","longitude":"136.60589000","wikiDataId":"Q1354896","type":"administrative","placeRank":16},"Q846345":{"countryCode":"JP","countyCode":"JP-17","code":"Q846345","name":"珠洲市","latitude":"37.45533000","longitude":"137.22587000","wikiDataId":"Q846345","type":"administrative","placeRank":16},"Q571051":{"countryCode":"JP","countyCode":"JP-15","code":"Q571051","name":"燕市","latitude":"37.66541000","longitude":"138.88619000","wikiDataId":"Q571051","type":"administrative","placeRank":16},"Q869027":{"countryCode":"JP","countyCode":"JP-11","code":"Q869027","name":"鶴ヶ島市","latitude":"35.93571000","longitude":"139.39456000","wikiDataId":"Q869027","type":"administrative","placeRank":16},"Q823896":{"countryCode":"JP","countyCode":"JP-30","code":"Q823896","name":"輪島市","latitude":"34.23333000","longitude":"135.16667000","wikiDataId":"Q823896","type":"administrative","placeRank":16},"Q185125":{"countryCode":"JP","countyCode":"JP-13","code":"Q185125","name":"浜松市","latitude":"35.76351000","longitude":"139.31411000","wikiDataId":"Q185125","type":"administrative","placeRank":16},"Q317827":{"countryCode":"JP","countyCode":"JP-03","code":"Q317827","name":"花巻市","latitude":"39.44187000","longitude":"141.16751000","wikiDataId":"Q317827","type":"administrative","placeRank":16},"Q15725":{"countryCode":"JP","countyCode":"JP-46","code":"Q15725","name":"いちき串木野市","latitude":"31.73281000","longitude":"130.28893000","wikiDataId":"Q15725","type":"administrative","placeRank":16},"Q390817":{"countryCode":"JP","countyCode":"JP-03","code":"Q390817","name":"一関市","latitude":"38.91667000","longitude":"141.13333000","wikiDataId":"Q390817","type":"administrative","placeRank":16},"Q329790":{"countryCode":"JP","countyCode":"JP-03","code":"Q329790","name":"釜石市","latitude":"39.28748000","longitude":"141.79854000","wikiDataId":"Q329790","type":"administrative","placeRank":16},"Q695911":{"countryCode":"JP","countyCode":"JP-03","code":"Q695911","name":"久慈市","latitude":"40.14364000","longitude":"141.65918000","wikiDataId":"Q695911","type":"administrative","placeRank":16},"Q502981":{"countryCode":"JP","countyCode":"JP-03","code":"Q502981","name":"宮古市","latitude":"39.65724000","longitude":"141.85144000","wikiDataId":"Q502981","type":"administrative","placeRank":16},"Q200077":{"countryCode":"JP","countyCode":"JP-03","code":"Q200077","name":"盛岡市","latitude":"39.74546000","longitude":"141.26915000","wikiDataId":"Q200077","type":"administrative","placeRank":16},"Q695907":{"countryCode":"JP","countyCode":"JP-14","code":"Q695907","name":"二戸市","latitude":"35.30150000","longitude":"139.25581000","wikiDataId":"Q695907","type":"administrative","placeRank":16},"Q384934":{"countryCode":"JP","countyCode":"JP-03","code":"Q384934","name":"大船渡市","latitude":"39.06667000","longitude":"141.71667000","wikiDataId":"Q384934","type":"administrative","placeRank":16},"Q202907":{"countryCode":"JP","countyCode":"JP-25","code":"Q202907","name":"大津市","latitude":"35.10203000","longitude":"135.92452000","wikiDataId":"Q202907","type":"administrative","placeRank":16},"Q270463":{"countryCode":"JP","countyCode":"JP-03","code":"Q270463","name":"陸前高田市","latitude":"39.04082000","longitude":"141.57703000","wikiDataId":"Q270463","type":"administrative","placeRank":16},"Q1205932":{"countryCode":"JP","countyCode":"JP-03","code":"Q1205932","name":"滝沢市","latitude":"39.80000000","longitude":"141.06667000","wikiDataId":"Q1205932","type":"administrative","placeRank":16},"Q646766":{"countryCode":"JP","countyCode":"JP-03","code":"Q646766","name":"遠野市","latitude":"39.36479000","longitude":"141.50922000","wikiDataId":"Q646766","type":"administrative","placeRank":16},"Q1023790":{"countryCode":"JP","countyCode":"JP-03","code":"Q1023790","name":"山田町","latitude":"39.46667000","longitude":"141.95000000","wikiDataId":"Q1023790","type":"administrative","placeRank":16},"Q861255":{"countryCode":"JP","countyCode":"JP-37","code":"Q861255","name":"東かがわ市","latitude":"34.21158000","longitude":"134.33350000","wikiDataId":"Q861255","type":"administrative","placeRank":16},"Q861270":{"countryCode":"JP","countyCode":"JP-09","code":"Q861270","name":"観音寺市","latitude":"36.65000000","longitude":"140.15000000","wikiDataId":"Q861270","type":"administrative","placeRank":16},"Q460835":{"countryCode":"JP","countyCode":"JP-04","code":"Q460835","name":"丸亀市","latitude":"37.91667000","longitude":"140.76667000","wikiDataId":"Q460835","type":"administrative","placeRank":16},"Q873578":{"countryCode":"JP","countyCode":"JP-37","code":"Q873578","name":"三豊市","latitude":"34.16176000","longitude":"133.72282000","wikiDataId":"Q873578","type":"administrative","placeRank":16},"Q855059":{"countryCode":"JP","countyCode":"JP-37","code":"Q855059","name":"坂出市","latitude":"34.32278000","longitude":"133.83560000","wikiDataId":"Q855059","type":"administrative","placeRank":16},"Q857202":{"countryCode":"JP","countyCode":"JP-37","code":"Q857202","name":"さぬき市","latitude":"34.26615000","longitude":"134.20941000","wikiDataId":"Q857202","type":"administrative","placeRank":16},"Q269634":{"countryCode":"JP","countyCode":"JP-13","code":"Q269634","name":"立川市","latitude":"35.71447000","longitude":"139.40453000","wikiDataId":"Q269634","type":"administrative","placeRank":16},"Q857218":{"countryCode":"JP","countyCode":"JP-27","code":"Q857218","name":"高石市","latitude":"34.52868000","longitude":"135.42958000","wikiDataId":"Q857218","type":"administrative","placeRank":16},"Q200707":{"countryCode":"JP","countyCode":"JP-45","code":"Q200707","name":"高松市","latitude":"32.13333000","longitude":"131.50000000","wikiDataId":"Q200707","type":"administrative","placeRank":16},"Q191300":{"countryCode":"JP","countyCode":"JP-37","code":"Q191300","name":"善通寺市","latitude":"34.22581000","longitude":"133.77692000","wikiDataId":"Q191300","type":"administrative","placeRank":16},"Q407947":{"countryCode":"JP","countyCode":"JP-46","code":"Q407947","name":"姶良市","latitude":"31.78460000","longitude":"130.60668000","wikiDataId":"Q407947","type":"administrative","placeRank":16},"Q15732":{"countryCode":"JP","countyCode":"JP-46","code":"Q15732","name":"阿久根市","latitude":"32.02516000","longitude":"130.19768000","wikiDataId":"Q15732","type":"administrative","placeRank":16},"Q453502":{"countryCode":"JP","countyCode":"JP-46","code":"Q453502","name":"奄美市","latitude":"28.34542000","longitude":"129.50221000","wikiDataId":"Q453502","type":"administrative","placeRank":16},"Q15716":{"countryCode":"JP","countyCode":"JP-46","code":"Q15716","name":"日置市","latitude":"31.59929000","longitude":"130.38208000","wikiDataId":"Q15716","type":"administrative","placeRank":16},"Q15736":{"countryCode":"JP","countyCode":"JP-46","code":"Q15736","name":"伊佐市","latitude":"32.05835000","longitude":"130.60104000","wikiDataId":"Q15736","type":"administrative","placeRank":16},"Q15734":{"countryCode":"JP","countyCode":"JP-46","code":"Q15734","name":"出水市","latitude":"32.06412000","longitude":"130.36097000","wikiDataId":"Q15734","type":"administrative","placeRank":16},"Q15674":{"countryCode":"JP","countyCode":"JP-46","code":"Q15674","name":"鹿児島市","latitude":"31.58003000","longitude":"130.52806000","wikiDataId":"Q15674","type":"administrative","placeRank":16},"Q819578":{"countryCode":"JP","countyCode":"JP-09","code":"Q819578","name":"鹿屋市","latitude":"36.55000000","longitude":"139.73333000","wikiDataId":"Q819578","type":"administrative","placeRank":16},"Q858352":{"countryCode":"JP","countyCode":"JP-46","code":"Q858352","name":"霧島市","latitude":"31.80558000","longitude":"130.78164000","wikiDataId":"Q858352","type":"administrative","placeRank":16},"Q850515":{"countryCode":"JP","countyCode":"JP-22","code":"Q850515","name":"湖西市","latitude":"34.73092000","longitude":"137.51643000","wikiDataId":"Q850515","type":"administrative","placeRank":16},"Q497952":{"countryCode":"JP","countyCode":"JP-11","code":"Q497952","name":"越谷市","latitude":"35.90108000","longitude":"139.79023000","wikiDataId":"Q497952","type":"administrative","placeRank":16},"Q386677":{"countryCode":"JP","countyCode":"JP-25","code":"Q386677","name":"草津市","latitude":"35.02758000","longitude":"135.93840000","wikiDataId":"Q386677","type":"administrative","placeRank":16},"Q548493":{"countryCode":"JP","countyCode":"JP-46","code":"Q548493","name":"枕崎市","latitude":"31.29139000","longitude":"130.30681000","wikiDataId":"Q548493","type":"administrative","placeRank":16},"Q19701":{"countryCode":"JP","countyCode":"JP-14","code":"Q19701","name":"南九州市","latitude":"35.49527000","longitude":"139.44279000","wikiDataId":"Q19701","type":"administrative","placeRank":16},"Q15754":{"countryCode":"JP","countyCode":"JP-46","code":"Q15754","name":"南さつま市","latitude":"31.38793000","longitude":"130.26961000","wikiDataId":"Q15754","type":"administrative","placeRank":16},"Q38234":{"countryCode":"JP","countyCode":"JP-42","code":"Q38234","name":"長崎市","latitude":"32.78206000","longitude":"129.82715000","wikiDataId":"Q38234","type":"administrative","placeRank":16},"Q847602":{"countryCode":"JP","countyCode":"JP-46","code":"Q847602","name":"西之表市","latitude":"30.70536000","longitude":"131.01521000","wikiDataId":"Q847602","type":"administrative","placeRank":16},"Q1155682":{"countryCode":"JP","countyCode":"JP-20","code":"Q1155682","name":"大河原町","latitude":"36.50000000","longitude":"137.86667000","wikiDataId":"Q1155682","type":"administrative","placeRank":16},"Q15720":{"countryCode":"JP","countyCode":"JP-46","code":"Q15720","name":"薩摩川内市","latitude":"31.82376000","longitude":"130.25899000","wikiDataId":"Q15720","type":"administrative","placeRank":16},"Q858378":{"countryCode":"JP","countyCode":"JP-46","code":"Q858378","name":"志布志市","latitude":"31.48333000","longitude":"131.10000000","wikiDataId":"Q858378","type":"administrative","placeRank":16},"Q858382":{"countryCode":"JP","countyCode":"JP-46","code":"Q858382","name":"曽於市","latitude":"31.65000000","longitude":"131.01667000","wikiDataId":"Q858382","type":"administrative","placeRank":16},"Q847591":{"countryCode":"JP","countyCode":"JP-46","code":"Q847591","name":"垂水市","latitude":"31.51583000","longitude":"130.76046000","wikiDataId":"Q847591","type":"administrative","placeRank":16},"Q389711":{"countryCode":"JP","countyCode":"JP-14","code":"Q389711","name":"厚木市","latitude":"35.46513000","longitude":"139.32707000","wikiDataId":"Q389711","type":"administrative","placeRank":16},"Q694370":{"countryCode":"JP","countyCode":"JP-26","code":"Q694370","name":"綾部市","latitude":"35.35263000","longitude":"135.34465000","wikiDataId":"Q694370","type":"administrative","placeRank":16},"Q633911":{"countryCode":"JP","countyCode":"JP-14","code":"Q633911","name":"茅ヶ崎市","latitude":"35.34429000","longitude":"139.40958000","wikiDataId":"Q633911","type":"administrative","placeRank":16},"Q734390":{"countryCode":"JP","countyCode":"JP-14","code":"Q734390","name":"海老名市","latitude":"35.43762000","longitude":"139.39307000","wikiDataId":"Q734390","type":"administrative","placeRank":16},"Q386661":{"countryCode":"JP","countyCode":"JP-14","code":"Q386661","name":"藤沢市","latitude":"35.36814000","longitude":"139.45899000","wikiDataId":"Q386661","type":"administrative","placeRank":16},"Q460806":{"countryCode":"JP","countyCode":"JP-14","code":"Q460806","name":"秦野市","latitude":"35.40000000","longitude":"139.20000000","wikiDataId":"Q460806","type":"administrative","placeRank":16},"Q502199":{"countryCode":"JP","countyCode":"JP-14","code":"Q502199","name":"平塚市","latitude":"35.35099000","longitude":"139.32013000","wikiDataId":"Q502199","type":"administrative","placeRank":16},"Q200267":{"countryCode":"JP","countyCode":"JP-15","code":"Q200267","name":"鎌倉市","latitude":"37.87214000","longitude":"139.10990000","wikiDataId":"Q200267","type":"administrative","placeRank":16},"Q164234":{"countryCode":"JP","countyCode":"JP-14","code":"Q164234","name":"川崎市","latitude":"35.56996000","longitude":"139.62854000","wikiDataId":"Q164234","type":"administrative","placeRank":16},"Q651742":{"countryCode":"JP","countyCode":"JP-14","code":"Q651742","name":"南足柄市","latitude":"35.30991000","longitude":"139.07016000","wikiDataId":"Q651742","type":"administrative","placeRank":16},"Q823886":{"countryCode":"JP","countyCode":"JP-14","code":"Q823886","name":"三浦市","latitude":"35.16754000","longitude":"139.64104000","wikiDataId":"Q823886","type":"administrative","placeRank":16},"Q267258":{"countryCode":"JP","countyCode":"JP-14","code":"Q267258","name":"小田原市","latitude":"35.25000000","longitude":"139.13333000","wikiDataId":"Q267258","type":"administrative","placeRank":16},"Q209779":{"countryCode":"JP","countyCode":"JP-14","code":"Q209779","name":"相模原市","latitude":"35.55000000","longitude":"139.35000000","wikiDataId":"Q209779","type":"administrative","placeRank":16},"Q370478":{"countryCode":"JP","countyCode":"JP-14","code":"Q370478","name":"山北町","latitude":"35.36344000","longitude":"139.07975000","wikiDataId":"Q370478","type":"administrative","placeRank":16},"Q386697":{"countryCode":"JP","countyCode":"JP-14","code":"Q386697","name":"大和市","latitude":"35.46934000","longitude":"139.46165000","wikiDataId":"Q386697","type":"administrative","placeRank":16},"Q26410":{"countryCode":"JP","countyCode":"JP-24","code":"Q26410","name":"四日市市","latitude":"34.96475000","longitude":"136.62443000","wikiDataId":"Q26410","type":"administrative","placeRank":16},"Q38283":{"countryCode":"JP","countyCode":"JP-14","code":"Q38283","name":"横浜市","latitude":"35.46225000","longitude":"139.57645000","wikiDataId":"Q38283","type":"administrative","placeRank":16},"Q532346":{"countryCode":"JP","countyCode":"JP-14","code":"Q532346","name":"湯河原町","latitude":"35.15000000","longitude":"139.06667000","wikiDataId":"Q532346","type":"administrative","placeRank":16},"Q145333":{"countryCode":"JP","countyCode":"JP-14","code":"Q145333","name":"座間市","latitude":"35.48752000","longitude":"139.40925000","wikiDataId":"Q145333","type":"administrative","placeRank":16},"Q1203279":{"countryCode":"JP","countyCode":"JP-39","code":"Q1203279","name":"阿智村","latitude":"35.44388889","longitude":"137.74750000","wikiDataId":"Q1203279","type":"administrative","placeRank":16},"Q374859":{"countryCode":"JP","countyCode":"JP-39","code":"Q374859","name":"上松町","latitude":"35.78388889","longitude":"137.69416667","wikiDataId":"Q374859","type":"administrative","placeRank":16},"Q417825":{"countryCode":"JP","countyCode":"JP-39","code":"Q417825","name":"安芸市","latitude":"33.50250000","longitude":"133.90722222","wikiDataId":"Q417825","type":"administrative","placeRank":16},"Q1203314":{"countryCode":"JP","countyCode":"JP-39","code":"Q1203314","name":"阿南町","latitude":"35.32361111","longitude":"137.81611111","wikiDataId":"Q1203314","type":"administrative","placeRank":16},"Q615719":{"countryCode":"JP","countyCode":"JP-39","code":"Q615719","name":"青木村","latitude":"36.37000000","longitude":"138.12861111","wikiDataId":"Q615719","type":"administrative","placeRank":16},"Q720461":{"countryCode":"JP","countyCode":"JP-39","code":"Q720461","name":"朝日村","latitude":"36.12361111","longitude":"137.86638889","wikiDataId":"Q720461","type":"administrative","placeRank":16},"Q534667":{"countryCode":"JP","countyCode":"JP-20","code":"Q534667","name":"安曇野市","latitude":"36.32716000","longitude":"137.83988000","wikiDataId":"Q534667","type":"administrative","placeRank":16},"Q1072656":{"countryCode":"JP","countyCode":"JP-39","code":"Q1072656","name":"筑北村","latitude":"36.42120000","longitude":"138.04011000","wikiDataId":"Q1072656","type":"administrative","placeRank":16},"Q179757":{"countryCode":"JP","countyCode":"JP-20","code":"Q179757","name":"千曲市","latitude":"36.50624000","longitude":"138.12352000","wikiDataId":"Q179757","type":"administrative","placeRank":16},"Q838660":{"countryCode":"JP","countyCode":"JP-20","code":"Q838660","name":"茅野市","latitude":"36.02522000","longitude":"138.24668000","wikiDataId":"Q838660","type":"administrative","placeRank":16},"Q1204145":{"countryCode":"JP","countyCode":"JP-39","code":"Q1204145","name":"富士見町","latitude":"35.91472222","longitude":"138.24083333","wikiDataId":"Q1204145","type":"administrative","placeRank":16},"Q1206376":{"countryCode":"JP","countyCode":"JP-39","code":"Q1206376","name":"芸西村","latitude":"33.52694444","longitude":"133.80916667","wikiDataId":"Q1206376","type":"administrative","placeRank":16},"Q1011157":{"countryCode":"JP","countyCode":"JP-39","code":"Q1011157","name":"白馬村","latitude":"36.70000000","longitude":"137.86666667","wikiDataId":"Q1011157","type":"administrative","placeRank":16},"Q1203041":{"countryCode":"JP","countyCode":"JP-39","code":"Q1203041","name":"原村","latitude":"35.96444444","longitude":"138.21750000","wikiDataId":"Q1203041","type":"administrative","placeRank":16},"Q1156151":{"countryCode":"JP","countyCode":"JP-39","code":"Q1156151","name":"日高村","latitude":"33.53472222","longitude":"133.37333333","wikiDataId":"Q1156151","type":"administrative","placeRank":16},"Q1346768":{"countryCode":"JP","countyCode":"JP-39","code":"Q1346768","name":"平谷村","latitude":"35.32333333","longitude":"137.63027778","wikiDataId":"Q1346768","type":"administrative","placeRank":16},"Q841129":{"countryCode":"JP","countyCode":"JP-20","code":"Q841129","name":"飯田市","latitude":"35.42287000","longitude":"137.89381000","wikiDataId":"Q841129","type":"administrative","placeRank":16},"Q522462":{"countryCode":"JP","countyCode":"JP-39","code":"Q522462","name":"飯島町","latitude":"35.67638889","longitude":"137.91944444","wikiDataId":"Q522462","type":"administrative","placeRank":16},"Q851097":{"countryCode":"JP","countyCode":"JP-20","code":"Q851097","name":"飯山市","latitude":"36.91249000","longitude":"138.38345000","wikiDataId":"Q851097","type":"administrative","placeRank":16},"Q772034":{"countryCode":"JP","countyCode":"JP-39","code":"Q772034","name":"飯綱町","latitude":"36.75500000","longitude":"138.23555556","wikiDataId":"Q772034","type":"administrative","placeRank":16},"Q1204048":{"countryCode":"JP","countyCode":"JP-39","code":"Q1204048","name":"池田町","latitude":"36.42138889","longitude":"137.87472222","wikiDataId":"Q1204048","type":"administrative","placeRank":16},"Q1347517":{"countryCode":"JP","countyCode":"JP-39","code":"Q1347517","name":"生坂村","latitude":"36.42527778","longitude":"137.92750000","wikiDataId":"Q1347517","type":"administrative","placeRank":16},"Q840888":{"countryCode":"JP","countyCode":"JP-20","code":"Q840888","name":"伊那市","latitude":"35.79079000","longitude":"138.07402000","wikiDataId":"Q840888","type":"administrative","placeRank":16},"Q1206590":{"countryCode":"JP","countyCode":"JP-39","code":"Q1206590","name":"いの町","latitude":"33.55000000","longitude":"133.43333333","wikiDataId":"Q1206590","type":"administrative","placeRank":16},"Q1012064":{"countryCode":"JP","countyCode":"JP-39","code":"Q1012064","name":"軽井沢町","latitude":"36.34833333","longitude":"138.59694444","wikiDataId":"Q1012064","type":"administrative","placeRank":16},"Q588091":{"countryCode":"JP","countyCode":"JP-39","code":"Q588091","name":"川上村","latitude":"35.97555556","longitude":"138.57833333","wikiDataId":"Q588091","type":"administrative","placeRank":16},"Q1204471":{"countryCode":"JP","countyCode":"JP-39","code":"Q1204471","name":"木島平村","latitude":"36.85861111","longitude":"138.40666667","wikiDataId":"Q1204471","type":"administrative","placeRank":16},"Q1743742":{"countryCode":"JP","countyCode":"JP-39","code":"Q1743742","name":"木祖村","latitude":"35.93638889","longitude":"137.78305556","wikiDataId":"Q1743742","type":"administrative","placeRank":16},"Q1202620":{"countryCode":"JP","countyCode":"JP-39","code":"Q1202620","name":"北相木村","latitude":"36.05916667","longitude":"138.55111111","wikiDataId":"Q1202620","type":"administrative","placeRank":16},"Q1350216":{"countryCode":"JP","countyCode":"JP-39","code":"Q1350216","name":"北川村","latitude":"33.44777778","longitude":"134.04222222","wikiDataId":"Q1350216","type":"administrative","placeRank":16},"Q200251":{"countryCode":"JP","countyCode":"JP-39","code":"Q200251","name":"高知市","latitude":"33.55888889","longitude":"133.53138889","wikiDataId":"Q200251","type":"administrative","placeRank":16},"Q838657":{"countryCode":"JP","countyCode":"JP-20","code":"Q838657","name":"小諸市","latitude":"36.33905000","longitude":"138.43503000","wikiDataId":"Q838657","type":"administrative","placeRank":16},"Q877209":{"countryCode":"JP","countyCode":"JP-39","code":"Q877209","name":"香南市","latitude":"33.56416667","longitude":"133.70055556","wikiDataId":"Q877209","type":"administrative","placeRank":16},"Q1351626":{"countryCode":"JP","countyCode":"JP-39","code":"Q1351626","name":"黒潮町","latitude":"33.02500000","longitude":"133.01083333","wikiDataId":"Q1351626","type":"administrative","placeRank":16},"Q222825":{"countryCode":"JP","countyCode":"JP-39","code":"Q222825","name":"松川町","latitude":"35.59722222","longitude":"137.90972222","wikiDataId":"Q222825","type":"administrative","placeRank":16},"Q1206074":{"countryCode":"JP","countyCode":"JP-39","code":"Q1206074","name":"三原村","latitude":"32.90611111","longitude":"132.84722222","wikiDataId":"Q1206074","type":"administrative","placeRank":16},"Q763885":{"countryCode":"JP","countyCode":"JP-39","code":"Q763885","name":"南相木村","latitude":"36.03611111","longitude":"138.54694444","wikiDataId":"Q763885","type":"administrative","placeRank":16},"Q1203240":{"countryCode":"JP","countyCode":"JP-39","code":"Q1203240","name":"南牧村","latitude":"36.02083333","longitude":"138.49222222","wikiDataId":"Q1203240","type":"administrative","placeRank":16},"Q1347404":{"countryCode":"JP","countyCode":"JP-39","code":"Q1347404","name":"南箕輪村","latitude":"35.87277778","longitude":"137.97527778","wikiDataId":"Q1347404","type":"administrative","placeRank":16},"Q1346975":{"countryCode":"JP","countyCode":"JP-39","code":"Q1346975","name":"箕輪町","latitude":"35.91500000","longitude":"137.98194444","wikiDataId":"Q1346975","type":"administrative","placeRank":16},"Q959501":{"countryCode":"JP","countyCode":"JP-39","code":"Q959501","name":"宮田村","latitude":"35.76888889","longitude":"137.94422222","wikiDataId":"Q959501","type":"administrative","placeRank":16},"Q1204123":{"countryCode":"JP","countyCode":"JP-39","code":"Q1204123","name":"御代田町","latitude":"36.32138889","longitude":"138.50888889","wikiDataId":"Q1204123","type":"administrative","placeRank":16},"Q735494":{"countryCode":"JP","countyCode":"JP-39","code":"Q735494","name":"本山町","latitude":"35.16402778","longitude":"136.96361111","wikiDataId":"Q735494","type":"administrative","placeRank":16},