{"Q450625":{"countryCode":"LT","countyCode":"LT-02","code":"Q450625","name":"Alytus","latitude":"54.39635000","longitude":"24.04142000","wikiDataId":"Q450625","type":"administrative","placeRank":16},"Q27485543":{"countryCode":"LT","countyCode":"LT-02","code":"Q27485543","name":"Daugai","latitude":"54.36667000","longitude":"24.33333000","wikiDataId":"Q27485543","type":"administrative","placeRank":16},"Q1261509":{"countryCode":"LT","countyCode":"LT-02","code":"Q1261509","name":"Druskininkai","latitude":"54.01573000","longitude":"23.98703000","wikiDataId":"Q1261509","type":"administrative","placeRank":16},"Q2044626":{"countryCode":"LT","countyCode":"LT-02","code":"Q2044626","name":"Veisiejai","latitude":"54.10110000","longitude":"23.69614000","wikiDataId":"Q2044626","type":"administrative","placeRank":16},"Q2869148":{"countryCode":"LT","countyCode":"LT-15","code":"Q2869148","name":"Akademija","latitude":"54.89640000","longitude":"23.82411000","wikiDataId":"Q2869148","type":"administrative","placeRank":16},"Q1004320":{"countryCode":"LT","countyCode":"LT-15","code":"Q1004320","name":"Ariogala","latitude":"55.26200000","longitude":"23.47700000","wikiDataId":"Q1004320","type":"administrative","placeRank":16},"Q804035":{"countryCode":"LT","countyCode":"LT-33","code":"Q804035","name":"Biržai","latitude":"56.20000000","longitude":"24.75000000","wikiDataId":"Q804035","type":"administrative","placeRank":16},"Q2356406":{"countryCode":"LT","countyCode":"LT-UT","code":"Q2356406","name":"Dūkštas","latitude":"55.52200000","longitude":"26.32100000","wikiDataId":"Q2356406","type":"administrative","placeRank":16},"Q2044597":{"countryCode":"LT","countyCode":"LT-15","code":"Q2044597","name":"Ežerėlis","latitude":"54.88315000","longitude":"23.60396000","wikiDataId":"Q2044597","type":"administrative","placeRank":16},"Q1004312":{"countryCode":"LT","countyCode":"LT-15","code":"Q1004312","name":"Garliava","latitude":"54.82139000","longitude":"23.87130000","wikiDataId":"Q1004312","type":"administrative","placeRank":16},"Q47068":{"countryCode":"LT","countyCode":"LT-15","code":"Q47068","name":"Jieznas","latitude":"54.59937000","longitude":"24.17593000","wikiDataId":"Q47068","type":"administrative","placeRank":16},"Q1260423":{"countryCode":"LT","countyCode":"LT-57","code":"Q1260423","name":"Justiniškės","latitude":"54.71664000","longitude":"25.21740000","wikiDataId":"Q1260423","type":"administrative","placeRank":16},"Q1734094":{"countryCode":"LT","countyCode":"LT-15","code":"Q1734094","name":"Karmėlava","latitude":"54.97055000","longitude":"24.06182000","wikiDataId":"Q1734094","type":"administrative","placeRank":16},"Q4115712":{"countryCode":"LT","countyCode":"LT-15","code":"Q4115712","name":"Kaunas","latitude":"54.90272000","longitude":"23.90961000","wikiDataId":"Q4115712","type":"administrative","placeRank":16},"Q2097414":{"countryCode":"LT","countyCode":"LT-15","code":"Q2097414","name":"Kulautuva","latitude":"54.94212000","longitude":"23.64218000","wikiDataId":"Q2097414","type":"administrative","placeRank":16},"Q1351046":{"countryCode":"LT","countyCode":"LT-25","code":"Q1351046","name":"Marijampolė","latitude":"54.56667000","longitude":"23.35000000","wikiDataId":"Q1351046","type":"administrative","placeRank":16},"Q768416":{"countryCode":"LT","countyCode":"LT-21","code":"Q768416","name":"Priekulė","latitude":"55.55427000","longitude":"21.31903000","wikiDataId":"Q768416","type":"administrative","placeRank":16},"Q384446":{"countryCode":"LT","countyCode":"LT-15","code":"Q384446","name":"Ramučiai","latitude":"54.94830000","longitude":"24.03050000","wikiDataId":"Q384446","type":"administrative","placeRank":16},"Q157516":{"countryCode":"LT","countyCode":"LT-21","code":"Q157516","name":"Salantai","latitude":"56.05650000","longitude":"21.56890000","wikiDataId":"Q157516","type":"administrative","placeRank":16},"Q1994818":{"countryCode":"LT","countyCode":"LT-15","code":"Q1994818","name":"Vilkija","latitude":"55.04609000","longitude":"23.58552000","wikiDataId":"Q1994818","type":"administrative","placeRank":16},"Q4178675":{"countryCode":"LT","countyCode":"LT-15","code":"Q4178675","name":"Žiežmariai","latitude":"54.80725000","longitude":"24.44073000","wikiDataId":"Q4178675","type":"administrative","placeRank":16},"Q776965":{"countryCode":"LT","countyCode":"LT-21","code":"Q776965","name":"Klaipėda","latitude":"55.71667000","longitude":"21.11667000","wikiDataId":"Q776965","type":"administrative","placeRank":16},"Q1788115":{"countryCode":"LT","countyCode":"LT-21","code":"Q1788115","name":"Kretinga","latitude":"55.88880000","longitude":"21.24448000","wikiDataId":"Q1788115","type":"administrative","placeRank":16},"Q1004306":{"countryCode":"LT","countyCode":"LT-33","code":"Q1004306","name":"Nida","latitude":"55.96895000","longitude":"25.15648000","wikiDataId":"Q1004306","type":"administrative","placeRank":16},"Q2047414":{"countryCode":"LT","countyCode":"LT-21","code":"Q2047414","name":"Palanga","latitude":"55.91750000","longitude":"21.06861000","wikiDataId":"Q2047414","type":"administrative","placeRank":16},"Q391626":{"countryCode":"LT","countyCode":"LT-21","code":"Q391626","name":"Šilutė","latitude":"55.34889000","longitude":"21.48306000","wikiDataId":"Q391626","type":"administrative","placeRank":16},"Q5247193":{"countryCode":"LT","countyCode":"LT-57","code":"Q5247193","name":"Skaidiškės","latitude":"55.15000000","longitude":"26.16667000","wikiDataId":"Q5247193","type":"administrative","placeRank":16},"Q3284738":{"countryCode":"LT","countyCode":"LT-25","code":"Q3284738","name":"Gelgaudiškis","latitude":"55.07688000","longitude":"22.97699000","wikiDataId":"Q3284738","type":"administrative","placeRank":16},"Q1004298":{"countryCode":"LT","countyCode":"LT-25","code":"Q1004298","name":"Kalvarija","latitude":"54.41700000","longitude":"23.22300000","wikiDataId":"Q1004298","type":"administrative","placeRank":16},"Q945473":{"countryCode":"LT","countyCode":"LT-25","code":"Q945473","name":"Kazlų Rūda","latitude":"54.74900000","longitude":"23.49000000","wikiDataId":"Q945473","type":"administrative","placeRank":16},"Q277936":{"countryCode":"LT","countyCode":"LT-25","code":"Q277936","name":"Kudirkos Naumiestis","latitude":"54.77353000","longitude":"22.86138000","wikiDataId":"Q277936","type":"administrative","placeRank":16},"Q1004295":{"countryCode":"LT","countyCode":"LT-25","code":"Q1004295","name":"Kybartai","latitude":"54.63858000","longitude":"22.76316000","wikiDataId":"Q1004295","type":"administrative","placeRank":16},"Q58790":{"countryCode":"LT","countyCode":"LT-57","code":"Q58790","name":"Rūdiškės","latitude":"54.51609000","longitude":"24.83084000","wikiDataId":"Q58790","type":"administrative","placeRank":16},"Q1004332":{"countryCode":"LT","countyCode":"LT-57","code":"Q1004332","name":"Vievis","latitude":"54.76667000","longitude":"24.80000000","wikiDataId":"Q1004332","type":"administrative","placeRank":16},"Q1024673":{"countryCode":"LT","countyCode":"LT-25","code":"Q1024673","name":"Virbalis","latitude":"54.62858000","longitude":"22.82272000","wikiDataId":"Q1024673","type":"administrative","placeRank":16},"Q6314474":{"countryCode":"LT","countyCode":"LT-33","code":"Q6314474","name":"Juodupė","latitude":"56.08700000","longitude":"25.60700000","wikiDataId":"Q6314474","type":"administrative","placeRank":16},"Q27484028":{"countryCode":"LT","countyCode":"LT-33","code":"Q27484028","name":"Kupiškis","latitude":"55.84027000","longitude":"24.97976000","wikiDataId":"Q27484028","type":"administrative","placeRank":16},"Q1719466":{"countryCode":"LT","countyCode":"LT-33","code":"Q1719466","name":"Panevėžys","latitude":"55.73600000","longitude":"24.34347000","wikiDataId":"Q1719466","type":"administrative","placeRank":16},"Q2089619":{"countryCode":"LT","countyCode":"LT-33","code":"Q2089619","name":"Ramygala","latitude":"55.51400000","longitude":"24.30000000","wikiDataId":"Q2089619","type":"administrative","placeRank":16},"Q27485851":{"countryCode":"LT","countyCode":"LT-43","code":"Q27485851","name":"Akmenė","latitude":"56.25000000","longitude":"22.75000000","wikiDataId":"Q27485851","type":"administrative","placeRank":16},"Q835856":{"countryCode":"LT","countyCode":"LT-43","code":"Q835856","name":"Kuršėnai","latitude":"56.00318000","longitude":"22.93662000","wikiDataId":"Q835856","type":"administrative","placeRank":16},"Q835848":{"countryCode":"LT","countyCode":"LT-43","code":"Q835848","name":"Naujoji Akmenė","latitude":"56.31667000","longitude":"22.90000000","wikiDataId":"Q835848","type":"administrative","placeRank":16},"Q318686":{"countryCode":"LT","countyCode":"LT-43","code":"Q318686","name":"Radviliškis","latitude":"55.81667000","longitude":"23.53333000","wikiDataId":"Q318686","type":"administrative","placeRank":16},"Q2356396":{"countryCode":"LT","countyCode":"LT-43","code":"Q2356396","name":"Šeduva","latitude":"55.74930000","longitude":"23.75610000","wikiDataId":"Q2356396","type":"administrative","placeRank":16},"Q134712":{"countryCode":"LT","countyCode":"LT-43","code":"Q134712","name":"Šiauliai","latitude":"55.93333000","longitude":"23.31667000","wikiDataId":"Q134712","type":"administrative","placeRank":16},"Q191015":{"countryCode":"LT","countyCode":"LT-57","code":"Q191015","name":"Trakai","latitude":"54.63783000","longitude":"24.93433000","wikiDataId":"Q191015","type":"administrative","placeRank":16},"Q1104010":{"countryCode":"LT","countyCode":"LT-43","code":"Q1104010","name":"Venta","latitude":"56.19162000","longitude":"22.69528000","wikiDataId":"Q1104010","type":"administrative","placeRank":16},"Q393332":{"countryCode":"LT","countyCode":"LT-43","code":"Q393332","name":"Žagarė","latitude":"56.36149000","longitude":"23.25094000","wikiDataId":"Q393332","type":"administrative","placeRank":16},"Q193787":{"countryCode":"LT","countyCode":"LT-TA","code":"Q193787","name":"Tauragė","latitude":"55.25222000","longitude":"22.28972000","wikiDataId":"Q193787","type":"administrative","placeRank":16},"Q27484102":{"countryCode":"LT","countyCode":"LT-51","code":"Q27484102","name":"Mažeikiai","latitude":"56.31667000","longitude":"22.33333000","wikiDataId":"Q27484102","type":"administrative","placeRank":16},"Q977255":{"countryCode":"LT","countyCode":"LT-51","code":"Q977255","name":"Plungė","latitude":"55.91139000","longitude":"21.84417000","wikiDataId":"Q977255","type":"administrative","placeRank":16},"Q394756":{"countryCode":"LT","countyCode":"LT-51","code":"Q394756","name":"Seda","latitude":"56.16854000","longitude":"22.09071000","wikiDataId":"Q394756","type":"administrative","placeRank":16},"Q2222616":{"countryCode":"LT","countyCode":"LT-51","code":"Q2222616","name":"Telšiai","latitude":"55.98139000","longitude":"22.24722000","wikiDataId":"Q2222616","type":"administrative","placeRank":16},"Q379669":{"countryCode":"LT","countyCode":"LT-51","code":"Q379669","name":"Viekšniai","latitude":"56.23598000","longitude":"22.51667000","wikiDataId":"Q379669","type":"administrative","placeRank":16},"Q27485494":{"countryCode":"LT","countyCode":"LT-UT","code":"Q27485494","name":"Anykščiai","latitude":"55.52557000","longitude":"25.10264000","wikiDataId":"Q27485494","type":"administrative","placeRank":16},"Q950639":{"countryCode":"LT","countyCode":"LT-57","code":"Q950639","name":"Grigiškės","latitude":"54.68333000","longitude":"25.08333000","wikiDataId":"Q950639","type":"administrative","placeRank":16},"Q189157":{"countryCode":"LT","countyCode":"LT-UT","code":"Q189157","name":"Utena","latitude":"55.49764000","longitude":"25.59918000","wikiDataId":"Q189157","type":"administrative","placeRank":16},"Q203892":{"countryCode":"LT","countyCode":"LT-57","code":"Q203892","name":"Visaginas","latitude":"54.30000000","longitude":"25.38333000","wikiDataId":"Q203892","type":"administrative","placeRank":16},"Q2667459":{"countryCode":"LT","countyCode":"LT-57","code":"Q2667459","name":"Aukštadvaris","latitude":"54.60002000","longitude":"25.19318000","wikiDataId":"Q2667459","type":"administrative","placeRank":16},"Q58880":{"countryCode":"LT","countyCode":"LT-57","code":"Q58880","name":"Eišiškės","latitude":"54.17414000","longitude":"24.99917000","wikiDataId":"Q58880","type":"administrative","placeRank":16},"Q286554":{"countryCode":"LT","countyCode":"LT-57","code":"Q286554","name":"Elektrėnai","latitude":"54.78544000","longitude":"24.66302000","wikiDataId":"Q286554","type":"administrative","placeRank":16},"Q923393":{"countryCode":"LT","countyCode":"LT-57","code":"Q923393","name":"Lentvaris","latitude":"54.64364000","longitude":"25.05162000","wikiDataId":"Q923393","type":"administrative","placeRank":16},"Q957530":{"countryCode":"LT","countyCode":"LT-57","code":"Q957530","name":"Molėtai","latitude":"54.67951000","longitude":"25.26855000","wikiDataId":"Q957530","type":"administrative","placeRank":16},"Q118910":{"countryCode":"LT","countyCode":"LT-57","code":"Q118910","name":"Nemenčinė","latitude":"54.84776000","longitude":"25.46992000","wikiDataId":"Q118910","type":"administrative","placeRank":16},"Q1004328":{"countryCode":"LT","countyCode":"LT-57","code":"Q1004328","name":"Pabradė","latitude":"54.98100000","longitude":"25.76100000","wikiDataId":"Q1004328","type":"administrative","placeRank":16},"Q3446896":{"countryCode":"LT","countyCode":"LT-57","code":"Q3446896","name":"Senieji Trakai","latitude":"54.60900000","longitude":"24.98000000","wikiDataId":"Q3446896","type":"administrative","placeRank":16},"Q392772":{"countryCode":"LT","countyCode":"LT-57","code":"Q392772","name":"Švenčionėliai","latitude":"55.16163000","longitude":"26.00177000","wikiDataId":"Q392772","type":"administrative","placeRank":16},"Q213127":{"countryCode":"LT","countyCode":"LT-57","code":"Q213127","name":"Ukmergė","latitude":"55.25000000","longitude":"24.75000000","wikiDataId":"Q213127","type":"administrative","placeRank":16},"Q216":{"countryCode":"LT","countyCode":"LT-57","code":"Q216","name":"Vilnius","latitude":"54.68916000","longitude":"25.27980000","wikiDataId":"Q216","type":"administrative","placeRank":16}}